[
    {
        "lat": 59.2998238, 
        "long": 17.9929753, 
        "name": "Konstfack"
    }, 
    {
        "lat": 59.347167, 
        "long": 18.0729617, 
        "name": "Kungliga Tekniska högskolan"
    }, 
    {
        "lat": 55.4912921, 
        "long": 8.4462009, 
        "name": "Aalborg Universitet Esbjerg"
    }, 
    {
        "lat": 49.8734728, 
        "long": 8.6548444, 
        "name": "TU Darmstadt/Schloss"
    }, 
    {
        "lat": -33.8849931, 
        "long": 151.1984544, 
        "name": "Notre Dame University"
    }, 
    {
        "lat": 55.4910543, 
        "long": 8.449326, 
        "name": "Syddansk Universitet, Esbjerg"
    }, 
    {
        "lat": 14.6550437, 
        "long": 121.0692448, 
        "name": "University of the Philippines"
    }, 
    {
        "lat": 55.7036166, 
        "long": 12.5609305, 
        "name": "Farmaceutisk Fakultet"
    }, 
    {
        "lat": 49.483022, 
        "long": 8.4616744, 
        "name": "Universität Mannheim"
    }, 
    {
        "lat": 51.4902841, 
        "long": -0.1286368, 
        "name": "Chelsea College of Art & Design"
    }, 
    {
        "lat": 13.1481363, 
        "long": 123.7180567, 
        "name": "Bicol University - College of Business Economics & Management"
    }, 
    {
        "lat": 11.709747, 
        "long": 122.2943327, 
        "name": "Aklan State University"
    }, 
    {
        "lat": 55.6883747, 
        "long": 12.5815815, 
        "name": "Geocenter København"
    }, 
    {
        "lat": 45.7479592, 
        "long": 4.860434, 
        "name": "Manufacture des Tabacs - Université Lyon III"
    }, 
    {
        "lat": 51.4478739, 
        "long": 5.4859445, 
        "name": "Technische Universiteit Eindhoven"
    }, 
    {
        "lat": 51.8765705, 
        "long": 0.9469064, 
        "name": "University of Essex"
    }, 
    {
        "lat": 52.3637734, 
        "long": 4.9115429, 
        "name": "UvA Faculteit der Economische Wetenshappen en Econometrie"
    }, 
    {
        "lat": 51.5227918, 
        "long": -0.0996753, 
        "name": "St Bartholemews and the Royal London School of Medicine and Dentistry"
    }, 
    {
        "lat": 50.8463788, 
        "long": -1.3028026, 
        "name": "Warsash Maritime Academy"
    }, 
    {
        "lat": 32.6573034, 
        "long": 51.6758982, 
        "name": "Art University"
    }, 
    {
        "lat": -19.8659511, 
        "long": -43.9645978, 
        "name": "Universidade Federal de Minas Gerais"
    }, 
    {
        "lat": 51.0784038, 
        "long": -114.1287077, 
        "name": "University of Calgary"
    }, 
    {
        "lat": 36.3218591, 
        "long": 50.0347674, 
        "name": "Islamic Azad University Qazvin"
    }, 
    {
        "lat": -6.9038225, 
        "long": 107.6078527, 
        "name": "Universitas Islam Bandung"
    }, 
    {
        "lat": -6.9042997, 
        "long": 107.6084706, 
        "name": "Universitas Pasundan"
    }, 
    {
        "lat": 50.7271705, 
        "long": -1.8292631, 
        "name": "Anglo-European College of Chiropractic"
    }, 
    {
        "lat": 50.3636859, 
        "long": 7.5592562, 
        "name": "Universität Koblenz-Landau Campus Koblenz"
    }, 
    {
        "lat": 49.1934783, 
        "long": 16.5772569, 
        "name": "Ekonomicko-správní fakulta MU"
    }, 
    {
        "lat": -6.8980283, 
        "long": 107.6450259, 
        "name": "Universitas Widyatama"
    }, 
    {
        "lat": 49.4876272, 
        "long": 8.4579604, 
        "name": "Universität Heidelberg, ZITI"
    }, 
    {
        "lat": 48.519717, 
        "long": 9.0553163, 
        "name": "Institut für Erziehungswissenschaften"
    }, 
    {
        "lat": 48.5191564, 
        "long": 9.0501165, 
        "name": "Ludwig-Uhland-Institut"
    }, 
    {
        "lat": 52.1673714, 
        "long": 4.4597039, 
        "name": "Universiteit Leiden, Gorlaeus Laboratorium"
    }, 
    {
        "lat": 48.5348721, 
        "long": 9.0711605, 
        "name": "Wilhelm-Schickard-Institut für Informatik"
    }, 
    {
        "lat": 53.8077071, 
        "long": -1.5617698, 
        "name": "University of Leeds (west campus)"
    }, 
    {
        "lat": 54.76826, 
        "long": -1.5702186, 
        "name": "Durham University"
    }, 
    {
        "lat": 59.291957, 
        "long": 11.094618, 
        "name": "Høyskolen i Østfold Avdeling for ingeniørfag"
    }, 
    {
        "lat": 43.4706622, 
        "long": -3.8042462, 
        "name": "Universidad de Cantabria"
    }, 
    {
        "lat": -6.9050969, 
        "long": 107.5973817, 
        "name": "Ariyanti"
    }, 
    {
        "lat": -6.8932162, 
        "long": 107.6168803, 
        "name": "Universitas Padjajaran"
    }, 
    {
        "lat": 49.7657882, 
        "long": 9.9319926, 
        "name": "Julius-von-Sachs-Institut für Biowissenschaften"
    }, 
    {
        "lat": 60.456993, 
        "long": 22.2793051, 
        "name": "Åbo Akademi, Arken"
    }, 
    {
        "lat": 60.4439445, 
        "long": 22.2685218, 
        "name": "Turun ammattikorkeakoulu"
    }, 
    {
        "lat": 55.6074679, 
        "long": -2.7842493, 
        "name": "Heriot-Watt University (Borders Campus)"
    }, 
    {
        "lat": 52.3693745, 
        "long": 4.8960412, 
        "name": "Oudemanhuispoort (UvA)"
    }, 
    {
        "lat": 46.1981489, 
        "long": 6.1328044, 
        "name": "Sciences II & Sciences III"
    }, 
    {
        "lat": 62.8919338, 
        "long": 27.6332719, 
        "name": "University of Kuopio"
    }, 
    {
        "lat": 53.8037484, 
        "long": -1.5488654, 
        "name": "Leeds Beckett University (City Campus)"
    }, 
    {
        "lat": 53.8274312, 
        "long": -1.5929028, 
        "name": "Leeds Beckett University (Headingley Campus)"
    }, 
    {
        "lat": 63.4138994, 
        "long": 10.434088, 
        "name": "Program for Lærerutdanning"
    }, 
    {
        "lat": 45.7414319, 
        "long": 4.8811862, 
        "name": "Faculté de Médecine Lyon Est"
    }, 
    {
        "lat": 45.7422945, 
        "long": 4.878666, 
        "name": "École Rockefeller"
    }, 
    {
        "lat": 40.7975993, 
        "long": -76.8654551, 
        "name": "Susquehanna University"
    }, 
    {
        "lat": 45.7467865, 
        "long": 4.8349417, 
        "name": "IEP Lyon"
    }, 
    {
        "lat": 43.4628695, 
        "long": -3.790185, 
        "name": "Escuela de Naútica de la Universidad de Cantabria"
    }, 
    {
        "lat": 59.363954, 
        "long": 18.0590531, 
        "name": "Stockholms Universitet"
    }, 
    {
        "lat": 57.6395641, 
        "long": 18.2889634, 
        "name": "Uppsala universitet"
    }, 
    {
        "lat": 53.8186805, 
        "long": -1.5515521, 
        "name": "Sugarwell Court"
    }, 
    {
        "lat": 52.2757921, 
        "long": 8.0217778, 
        "name": "FA (IfM)"
    }, 
    {
        "lat": 52.2680954, 
        "long": 8.0316413, 
        "name": "Sportzentrum der Universität Osnabrück"
    }, 
    {
        "lat": 52.2726198, 
        "long": 8.0398727, 
        "name": "Universitätsgebäude 22"
    }, 
    {
        "lat": 52.2729018, 
        "long": 8.0454991, 
        "name": "Universitätsgebäude 09"
    }, 
    {
        "lat": 52.2712963, 
        "long": 8.0478835, 
        "name": "Universitätsgebäude 05"
    }, 
    {
        "lat": 52.2728106, 
        "long": 8.0409425, 
        "name": "Universitätsgebäude 43 Institut für Erziehungswissenschaft"
    }, 
    {
        "lat": 52.2722754, 
        "long": 8.0422477, 
        "name": "Universitätsgebäude 41"
    }, 
    {
        "lat": 52.3537427, 
        "long": 9.7238736, 
        "name": "Hochschule Hannover"
    }, 
    {
        "lat": 46.2246553, 
        "long": 6.2524845, 
        "name": "HES-SO Ecole d'Ingénieur de Lullier (EIL)"
    }, 
    {
        "lat": 40.5454203, 
        "long": -3.6951618, 
        "name": "Facultad de Ciencias"
    }, 
    {
        "lat": 40.5449246, 
        "long": -3.6966059, 
        "name": "Facultad de Ciencias Económicas y Empresariales"
    }, 
    {
        "lat": 60.4228964, 
        "long": 22.2999542, 
        "name": "Turun Ammatti-instituutti Peltolan koulutalo"
    }, 
    {
        "lat": 48.2263158, 
        "long": 16.3491414, 
        "name": "FHWien"
    }, 
    {
        "lat": 53.5479705, 
        "long": 8.0895636, 
        "name": "Jade-Hochschule Wilhelmshaven"
    }, 
    {
        "lat": 49.7905145, 
        "long": 9.932481, 
        "name": "Alte Universität"
    }, 
    {
        "lat": 35.169781, 
        "long": 33.3518252, 
        "name": "NA"
    }, 
    {
        "lat": 54.7663079, 
        "long": -1.5778524, 
        "name": "St Mary's College"
    }, 
    {
        "lat": 54.765013, 
        "long": -1.5833088, 
        "name": "St Aidan's College"
    }, 
    {
        "lat": 6.4636522, 
        "long": 3.2017248, 
        "name": "Lagos State University"
    }, 
    {
        "lat": 48.5194007, 
        "long": 9.0548128, 
        "name": "Philosophie und Kunstgeschichte"
    }, 
    {
        "lat": 54.9781026, 
        "long": -1.6067699, 
        "name": "Northumbria University"
    }, 
    {
        "lat": 42.3677568, 
        "long": 14.1510341, 
        "name": "Università degli Studi di Chieti 'G. D'Annunzio'"
    }, 
    {
        "lat": 48.4206167, 
        "long": 9.9470045, 
        "name": "Uni-West"
    }, 
    {
        "lat": 44.4474544, 
        "long": 26.0971213, 
        "name": "Academia de Studii Economice"
    }, 
    {
        "lat": -33.4526406, 
        "long": -70.6605017, 
        "name": "Universidad Diego Portales"
    }, 
    {
        "lat": 52.1691183, 
        "long": 4.4731547, 
        "name": "Universiteit Leiden, Clusius Laboratorium"
    }, 
    {
        "lat": 52.1684352, 
        "long": 4.4579325, 
        "name": "Universiteit Leiden, Huygens"
    }, 
    {
        "lat": 52.1687271, 
        "long": 4.4583942, 
        "name": "Universiteit Leiden, Oortgebouw"
    }, 
    {
        "lat": 43.5240287, 
        "long": -5.614682, 
        "name": "Facultad de Comercio, Turismo y Ciencias Sociales Jovellanos"
    }, 
    {
        "lat": 49.1491483, 
        "long": -0.3532504, 
        "name": "NA"
    }, 
    {
        "lat": 44.4352235, 
        "long": 26.0891592, 
        "name": "Facultatea de Sociologie și Asistență Socială"
    }, 
    {
        "lat": 53.3690121, 
        "long": 7.1843534, 
        "name": "Hochschule Emden/Leer (Campus Emden)"
    }, 
    {
        "lat": 60.2058619, 
        "long": 24.8975847, 
        "name": "Hammaslääketieteen laitos"
    }, 
    {
        "lat": 43.4824541, 
        "long": -8.2225698, 
        "name": "Universidade da Coruña - Campus de Esteiro"
    }, 
    {
        "lat": 42.3623061, 
        "long": -71.0912936, 
        "name": "Picower Institute for Learning and Memory (MIT)"
    }, 
    {
        "lat": 42.3626295, 
        "long": -71.0914481, 
        "name": "McGovern Institute for Brain Research (MIT)"
    }, 
    {
        "lat": 41.3031348, 
        "long": -72.9338619, 
        "name": "School of Medicine"
    }, 
    {
        "lat": 43.6174852, 
        "long": 3.8842406, 
        "name": "École Supérieure des Beaux-Arts"
    }, 
    {
        "lat": 48.0038849, 
        "long": 7.8563364, 
        "name": "Katholische Hochschule"
    }, 
    {
        "lat": 48.4058564, 
        "long": 2.6853609, 
        "name": "INSEAD"
    }, 
    {
        "lat": 59.2190975, 
        "long": 17.9424791, 
        "name": "Södertörns Högskola"
    }, 
    {
        "lat": 49.5864454, 
        "long": 17.2360354, 
        "name": "UPOL - Lékařská fakulta"
    }, 
    {
        "lat": 51.3395978, 
        "long": 12.3517712, 
        "name": "Universität Leipzig - Sportwissenschaft"
    }, 
    {
        "lat": 60.6685135, 
        "long": 17.1191091, 
        "name": "Högskolan i Gävle"
    }, 
    {
        "lat": -28.0737231, 
        "long": 153.4172864, 
        "name": "Bond University"
    }, 
    {
        "lat": 30.3938686, 
        "long": -88.6463428, 
        "name": "Mississippi Gulf Coast Junior College, Jackson County"
    }, 
    {
        "lat": 52.4269939, 
        "long": 13.3580527, 
        "name": "FU Berlin GeoCampus"
    }, 
    {
        "lat": -30.4878244, 
        "long": 151.6441154, 
        "name": "University of New England"
    }, 
    {
        "lat": 48.7857856, 
        "long": 2.0511246, 
        "name": "Université de Versailles SQY - UFR des sciences juridiques et politiques"
    }, 
    {
        "lat": 45.1853595, 
        "long": 9.1635008, 
        "name": "Università di Pavia - Facoltà di Botanica"
    }, 
    {
        "lat": 51.7159841, 
        "long": 8.7549447, 
        "name": "Theologische Fakultät Paderborn"
    }, 
    {
        "lat": 59.3515453, 
        "long": 18.0310658, 
        "name": "Karolinska Institutet"
    }, 
    {
        "lat": 35.1794444, 
        "long": 33.3803423, 
        "name": "Frederick University"
    }, 
    {
        "lat": 43.3167725, 
        "long": 11.3383398, 
        "name": "Facoltà di Lettere e Filosofia"
    }, 
    {
        "lat": 63.8441893, 
        "long": 23.1013247, 
        "name": "K-PAMK, sosiaali- ja terveysala"
    }, 
    {
        "lat": 35.159639, 
        "long": 33.3385947, 
        "name": "European Univercity Of Cyprus"
    }, 
    {
        "lat": 48.5552941, 
        "long": 12.1968087, 
        "name": "Hochschule Landshut / Hochschule für angewandte Wissenschaften"
    }, 
    {
        "lat": 47.6620461, 
        "long": 9.5967349, 
        "name": "Elektronikschule Tettnang"
    }, 
    {
        "lat": 23.5911357, 
        "long": 58.1698005, 
        "name": "Sultan Qaboos University"
    }, 
    {
        "lat": 45.7796338, 
        "long": 4.8718834, 
        "name": "Université Claude Bernard Lyon 1"
    }, 
    {
        "lat": 35.1699003, 
        "long": 33.3533186, 
        "name": "UCY Archaeological department"
    }, 
    {
        "lat": 45.0520507, 
        "long": 7.6818071, 
        "name": "Università degli Studi di Torino - Dipartimento di Fisica"
    }, 
    {
        "lat": 39.9946294, 
        "long": -0.0689849, 
        "name": "Universidad Jaume I"
    }, 
    {
        "lat": 51.893435, 
        "long": -8.4920353, 
        "name": "University College Cork"
    }, 
    {
        "lat": 50.8471314, 
        "long": 5.6874182, 
        "name": "Department of Knowledge Engineering"
    }, 
    {
        "lat": 51.4825423, 
        "long": -0.0066531, 
        "name": "University of Greenwich"
    }, 
    {
        "lat": 48.5833229, 
        "long": 7.7729667, 
        "name": "École de Management"
    }, 
    {
        "lat": 48.5825856, 
        "long": 7.7737233, 
        "name": "Faculté des Sciences Économiques"
    }, 
    {
        "lat": 43.621773, 
        "long": 3.873705, 
        "name": "NA"
    }, 
    {
        "lat": 51.3494162, 
        "long": 9.8549227, 
        "name": "Universität Kassel"
    }, 
    {
        "lat": 41.7499839, 
        "long": -72.6929911, 
        "name": "Trinity College"
    }, 
    {
        "lat": 41.8636181, 
        "long": 12.4792632, 
        "name": "RomaTre - Facoltà di Scienze Della Formazione"
    }, 
    {
        "lat": 15.5562821, 
        "long": -61.4585829, 
        "name": "Ross University School of Medicine"
    }, 
    {
        "lat": 43.1189053, 
        "long": 12.3553307, 
        "name": "Facoltà di Ingegneria"
    }, 
    {
        "lat": -33.4346478, 
        "long": -70.6254811, 
        "name": "Universidad Tecnologica Metropolitana"
    }, 
    {
        "lat": -33.4360801, 
        "long": -70.6149568, 
        "name": "Universidad de las Americas"
    }, 
    {
        "lat": 62.7696267, 
        "long": 30.9723825, 
        "name": "Mekrijärven tutkimusasema"
    }, 
    {
        "lat": 52.1972309, 
        "long": -2.2431491, 
        "name": "University of Worcester"
    }, 
    {
        "lat": 12.9485417, 
        "long": 80.1403157, 
        "name": "Madras Institute of Technology - MIT Chrompet"
    }, 
    {
        "lat": 22.5964916, 
        "long": 88.4174395, 
        "name": "West Bengal University of Technology"
    }, 
    {
        "lat": -1.3034624, 
        "long": -78.602013, 
        "name": "Uniandes"
    }, 
    {
        "lat": 45.4765762, 
        "long": 9.227541, 
        "name": "Facoltà di Agraria"
    }, 
    {
        "lat": 45.4765938, 
        "long": 9.2290858, 
        "name": "Facoltà di Medicina Veterinaria"
    }, 
    {
        "lat": 49.2607409, 
        "long": 7.360398, 
        "name": "Hochschule Kaiserslautern, Standort Zweibrücken"
    }, 
    {
        "lat": 60.6138884, 
        "long": 15.6536399, 
        "name": "Högskolan Dalarna"
    }, 
    {
        "lat": 40.6536523, 
        "long": -7.9063289, 
        "name": "NA"
    }, 
    {
        "lat": 24.9683123, 
        "long": 121.1948395, 
        "name": "國立中央大學 (National Central University)"
    }, 
    {
        "lat": 49.8336124, 
        "long": 18.1641086, 
        "name": "VŠB-TU Ostrava - hlavní vchod"
    }, 
    {
        "lat": 43.5952752, 
        "long": 1.4430514, 
        "name": "Institut Catholique"
    }, 
    {
        "lat": 38.8716735, 
        "long": -6.9800081, 
        "name": "Residencia Univesitaria Hernán Cortés"
    }, 
    {
        "lat": -30.3250667, 
        "long": 153.1019744, 
        "name": "Southern Cross University Coffs Harbour Campus"
    }, 
    {
        "lat": 53.8174801, 
        "long": -1.5679648, 
        "name": "Headingley Halls"
    }, 
    {
        "lat": 50.7275061, 
        "long": 7.0882305, 
        "name": "Physikalisches Institut"
    }, 
    {
        "lat": 52.2750783, 
        "long": 10.5267343, 
        "name": "AStA TUBS"
    }, 
    {
        "lat": 34.0695515, 
        "long": 72.6440421, 
        "name": "GIKI"
    }, 
    {
        "lat": 49.0390423, 
        "long": 2.0713228, 
        "name": "ENSEA (École Nationale Supérieure de l'Électronique et de ses Applications)"
    }, 
    {
        "lat": 51.1174426, 
        "long": 9.1237409, 
        "name": "Berufsakademie Nordhessen"
    }, 
    {
        "lat": 43.5625096, 
        "long": 11.5296338, 
        "name": "Scuola infermieri"
    }, 
    {
        "lat": 43.8509464, 
        "long": 18.4002885, 
        "name": "Šumarski fakultet"
    }, 
    {
        "lat": 44.1447451, 
        "long": 12.2399214, 
        "name": "Facoltà di Architettura"
    }, 
    {
        "lat": 44.1453355, 
        "long": 12.2417255, 
        "name": "Facoltà di Architettura"
    }, 
    {
        "lat": 43.8678217, 
        "long": 18.413137, 
        "name": "Arhitektonski fakultet"
    }, 
    {
        "lat": 36.575103, 
        "long": 36.1562566, 
        "name": "NA"
    }, 
    {
        "lat": 44.1398383, 
        "long": 12.2429769, 
        "name": "Ingegneria e Scienze Informatiche"
    }, 
    {
        "lat": 48.746357, 
        "long": 9.1051726, 
        "name": "Institut für Technische Informatik"
    }, 
    {
        "lat": 53.9119883, 
        "long": 27.5949592, 
        "name": "БГУИР 4к"
    }, 
    {
        "lat": 53.9115566, 
        "long": 27.5959978, 
        "name": "БГУИР 5к"
    }, 
    {
        "lat": 14.66525, 
        "long": 120.989349, 
        "name": "G. Araneta University Institute Of Engineering"
    }, 
    {
        "lat": 14.6043351, 
        "long": 120.9953029, 
        "name": "Manila Central University College of Dentistry"
    }, 
    {
        "lat": 14.665921, 
        "long": 120.985641, 
        "name": "Araneta University Extension College Department"
    }, 
    {
        "lat": 14.6604803, 
        "long": 120.9792196, 
        "name": "University of the East"
    }, 
    {
        "lat": 14.65947, 
        "long": 120.986167, 
        "name": "Manila Central University"
    }, 
    {
        "lat": 14.6044245, 
        "long": 120.9890967, 
        "name": "Polytechnic University Of The Pilippines"
    }, 
    {
        "lat": 14.6083843, 
        "long": 120.9838641, 
        "name": "Manila Central University"
    }, 
    {
        "lat": 14.6588781, 
        "long": 120.9767535, 
        "name": "University of the East Caloocan"
    }, 
    {
        "lat": 14.60364, 
        "long": 120.990516, 
        "name": "Manila Central University"
    }, 
    {
        "lat": 14.5808969, 
        "long": 121.009419, 
        "name": "Arellano University"
    }, 
    {
        "lat": 14.662645, 
        "long": 121.0647749, 
        "name": "New Era University"
    }, 
    {
        "lat": 14.60213, 
        "long": 120.98838, 
        "name": "Polytechnic University Of The Philippines"
    }, 
    {
        "lat": 14.6070218, 
        "long": 121.0209454, 
        "name": "University of the East - Ramon Magsaysay"
    }, 
    {
        "lat": 42.6579464, 
        "long": 23.3449567, 
        "name": "НХА Факултет по промишлени изкуства мода порцелан и стъкло филиал"
    }, 
    {
        "lat": 42.6985445, 
        "long": 23.3351514, 
        "name": "НХА Факултет по промишлени изкуства и промишлен дизайн"
    }, 
    {
        "lat": 42.670661, 
        "long": 23.2673765, 
        "name": "Висше училище по застраховане и финанси"
    }, 
    {
        "lat": 42.6923495, 
        "long": 23.3260637, 
        "name": "Национална академия за театрално и филмово изкуство Кръстьо Сарафов"
    }, 
    {
        "lat": 42.6783685, 
        "long": 23.3700924, 
        "name": "СУ Факултет по начална и предучилищна педагогика"
    }, 
    {
        "lat": 42.6949552, 
        "long": 23.3471415, 
        "name": "Държавна музикална академия Проф. Панчо Владигеров"
    }, 
    {
        "lat": 42.700541, 
        "long": 23.339223, 
        "name": "МУ Факултет по обществено здраве"
    }, 
    {
        "lat": 42.6873609, 
        "long": 23.3242192, 
        "name": "НСА Факултет кинезитерапия"
    }, 
    {
        "lat": 42.6958229, 
        "long": 23.321808, 
        "name": "СУ Богословски факултет"
    }, 
    {
        "lat": 42.658007, 
        "long": 23.344963, 
        "name": "НХА Факултет по приложни изкуства-текстил и керамика-филиал"
    }, 
    {
        "lat": 42.6465905, 
        "long": 23.349119, 
        "name": "НСА Треньорски факултет"
    }, 
    {
        "lat": 47.4795981, 
        "long": 8.2136455, 
        "name": "Fachhochschule Nordwestschweiz"
    }, 
    {
        "lat": 51.5013255, 
        "long": 7.1348301, 
        "name": "Fachhochschule für öffentliche Verwaltung NRW, Zentralverwaltung"
    }, 
    {
        "lat": 51.5139439, 
        "long": 7.1185794, 
        "name": "Fachhochschule für öffentliche Verwaltung NRW"
    }, 
    {
        "lat": 51.5167573, 
        "long": -0.2328423, 
        "name": "Imperial College London"
    }, 
    {
        "lat": 6.8536201, 
        "long": 79.9059902, 
        "name": "University of Sri Jayewardenepura"
    }, 
    {
        "lat": 47.318849, 
        "long": 5.0431241, 
        "name": "NA"
    }, 
    {
        "lat": 43.2542378, 
        "long": -79.8679646, 
        "name": "McMaster University Downtown Centre"
    }, 
    {
        "lat": -32.9570231, 
        "long": -71.5500659, 
        "name": "Facultad de Ciencias del Mar - U. Valparaíso"
    }, 
    {
        "lat": 45.7396361, 
        "long": 4.8870952, 
        "name": "Faculté de médecine Laennec"
    }, 
    {
        "lat": 53.5550247, 
        "long": 10.0221349, 
        "name": "Studierendenzentrum"
    }, 
    {
        "lat": 51.2366703, 
        "long": 22.5490717, 
        "name": "Politechnika Lubelska"
    }, 
    {
        "lat": 46.1727378, 
        "long": 21.3167242, 
        "name": "Facultatea de Științe ale Naturii, Inginerie și Informatică a Universității \"Vasile Goldiș\""
    }, 
    {
        "lat": 46.1729986, 
        "long": 21.3160619, 
        "name": "Vasile Goldiș: Facultatea de Științe Juridice"
    }, 
    {
        "lat": 45.1955736, 
        "long": 5.7262644, 
        "name": "Institut Dolomieu"
    }, 
    {
        "lat": 53.4679655, 
        "long": -2.2361717, 
        "name": "Manchester Business School"
    }, 
    {
        "lat": 60.4546251, 
        "long": 22.2890102, 
        "name": "Turun Kauppakorkeakoulu"
    }, 
    {
        "lat": 41.9189784, 
        "long": 12.4802918, 
        "name": "Facoltà di Architettura \"Valle Giulia\""
    }, 
    {
        "lat": -33.0249404, 
        "long": -71.5639271, 
        "name": "Universidad de Viña del Mar"
    }, 
    {
        "lat": 41.9214184, 
        "long": 12.5132705, 
        "name": "LUISS"
    }, 
    {
        "lat": 49.7993995, 
        "long": 9.9279759, 
        "name": "Campus Röntgenring"
    }, 
    {
        "lat": 48.3071615, 
        "long": 18.0934681, 
        "name": "Slovenská poľnohospodárska univerzita"
    }, 
    {
        "lat": 62.6038143, 
        "long": 29.7446317, 
        "name": "Carelia-sali"
    }, 
    {
        "lat": 37.4282068, 
        "long": -122.1699201, 
        "name": "Stanford University"
    }, 
    {
        "lat": 60.269878, 
        "long": 5.222146, 
        "name": "Marinbiologisk stasjon, Universitetet i Bergen"
    }, 
    {
        "lat": 40.6009997, 
        "long": -75.3611801, 
        "name": "Lehigh University Mountaintop Campus"
    }, 
    {
        "lat": 40.5867794, 
        "long": -75.3568536, 
        "name": "Lehigh University Goodman Campus"
    }, 
    {
        "lat": 41.9142199, 
        "long": 12.4971176, 
        "name": "Università Sapienza di Roma - Facoltà di Informatica, Sociologia, Scienze della Comunicazione"
    }, 
    {
        "lat": 39.060115, 
        "long": 125.7130234, 
        "name": "Pyongyang University of Railways"
    }, 
    {
        "lat": 49.3834643, 
        "long": 8.5714737, 
        "name": "Fachhochschule Schwetzingen"
    }, 
    {
        "lat": 41.9040214, 
        "long": 12.4757375, 
        "name": "Università La Sapienza sede distaccata Architettura"
    }, 
    {
        "lat": 38.9927751, 
        "long": 125.7656153, 
        "name": "University of Light Industry"
    }, 
    {
        "lat": 46.1761384, 
        "long": 21.343779, 
        "name": "Aurel Vlaicu"
    }, 
    {
        "lat": 28.4829518, 
        "long": -16.3223762, 
        "name": "Escuela Tecnica Superior de Ingenieria Informatica"
    }, 
    {
        "lat": 47.3275675, 
        "long": 5.0419371, 
        "name": "ESC Dijon"
    }, 
    {
        "lat": 42.7960476, 
        "long": -1.6314569, 
        "name": "UNED Pamplona"
    }, 
    {
        "lat": 51.3377438, 
        "long": 12.3736416, 
        "name": "Juridicum"
    }, 
    {
        "lat": 50.9488209, 
        "long": 6.9465501, 
        "name": "Fresenius Fachhochschule"
    }, 
    {
        "lat": 45.65551, 
        "long": 25.5998172, 
        "name": "Corpul V"
    }, 
    {
        "lat": 60.1715445, 
        "long": 24.932556, 
        "name": "Sibelius-Akatemia"
    }, 
    {
        "lat": 38.6485485, 
        "long": -90.3070093, 
        "name": "NA"
    }, 
    {
        "lat": 4.6617977, 
        "long": -74.062769, 
        "name": "UNITEC"
    }, 
    {
        "lat": 4.59499, 
        "long": -74.0752603, 
        "name": "Universidad Libre"
    }, 
    {
        "lat": 47.7966676, 
        "long": 13.0498139, 
        "name": "ÖH Österreichische Hochschülerschaft"
    }, 
    {
        "lat": 40.4587817, 
        "long": -3.6753648, 
        "name": "ESERP Bussiness School"
    }, 
    {
        "lat": 52.2715167, 
        "long": 8.0460786, 
        "name": "Universitätsgebäude 02"
    }, 
    {
        "lat": 46.6264408, 
        "long": 14.2999043, 
        "name": "IFF"
    }, 
    {
        "lat": 35.6377627, 
        "long": 139.38469, 
        "name": "東京薬科大学 (Tokyo University of Phamacy and Life Sciences)"
    }, 
    {
        "lat": 51.5046978, 
        "long": 11.9427501, 
        "name": "Pharmakologie"
    }, 
    {
        "lat": 54.679684, 
        "long": 25.2784203, 
        "name": "Vilniaus Gedimino technikos universiteto Architektūros fakultetas"
    }, 
    {
        "lat": 54.6739174, 
        "long": 25.2663611, 
        "name": "Vilniaus Gedimino technikos universiteto Elektronikos fakultetas"
    }, 
    {
        "lat": 58.9377085, 
        "long": 5.6937667, 
        "name": "Universitetet i Stavanger"
    }, 
    {
        "lat": 52.2727678, 
        "long": 8.0458374, 
        "name": "Universitätsgebäude 08"
    }, 
    {
        "lat": 48.4078496, 
        "long": 15.585969, 
        "name": "Donauuniversität Krems"
    }, 
    {
        "lat": 35.6100701, 
        "long": 139.311394, 
        "name": "東京家政学院大学 （Tokyo Kasei Gakuin)"
    }, 
    {
        "lat": 45.6547635, 
        "long": 13.7746768, 
        "name": "Università degli Studi di Trieste - Scuola Superiore di Lingue Moderne per Interpreti e Traduttori"
    }, 
    {
        "lat": 48.4222927, 
        "long": 10.0062919, 
        "name": "Hochschule Ulm – Campus Böfingen"
    }, 
    {
        "lat": 38.781528, 
        "long": -9.160719, 
        "name": "Instituto Superior de Gestão"
    }, 
    {
        "lat": 38.7814544, 
        "long": -9.1606589, 
        "name": "Instituto Superior Novas Profissões"
    }, 
    {
        "lat": 51.7153587, 
        "long": -1.2914559, 
        "name": "The Open University in the South"
    }, 
    {
        "lat": 50.9062731, 
        "long": 8.0286131, 
        "name": "G"
    }, 
    {
        "lat": 50.9064689, 
        "long": 8.0288783, 
        "name": "D"
    }, 
    {
        "lat": 50.9061944, 
        "long": 8.0277339, 
        "name": "B"
    }, 
    {
        "lat": 50.9070999, 
        "long": 8.0279145, 
        "name": "C"
    }, 
    {
        "lat": 41.0132424, 
        "long": 28.9637609, 
        "name": "İstanbul Üniversitesi"
    }, 
    {
        "lat": 20.7058243, 
        "long": -105.2214286, 
        "name": "Centro Universitario de la costa/ kiosco"
    }, 
    {
        "lat": 20.6778301, 
        "long": -105.2201334, 
        "name": "Universidad del Valle de Atemajac"
    }, 
    {
        "lat": 51.538208, 
        "long": 9.939797, 
        "name": "Albrecht-von-Haller-Institut für Pflanzenwissenschaften"
    }, 
    {
        "lat": 50.9054238, 
        "long": 8.029542, 
        "name": "E"
    }, 
    {
        "lat": 52.2716548, 
        "long": 8.0452718, 
        "name": "Universitätsgebäude 19"
    }, 
    {
        "lat": -16.5070117, 
        "long": -68.128385, 
        "name": "Carrera de Geografia"
    }, 
    {
        "lat": 55.6831368, 
        "long": 12.5291727, 
        "name": "Institut for Skole og Læring, Professionshøjskolen Metropol"
    }, 
    {
        "lat": 51.3433668, 
        "long": -2.7791614, 
        "name": "Langford House, University of Bristol, Veterinary Science"
    }, 
    {
        "lat": 51.1720561, 
        "long": -0.4206821, 
        "name": "Mullard Space Science Laboratory"
    }, 
    {
        "lat": 52.3796299, 
        "long": 9.7234896, 
        "name": "Leibniz Universität IT Services"
    }, 
    {
        "lat": 35.3879102, 
        "long": 139.4270258, 
        "name": "慶應義塾大学湘南藤沢キャンパス (Keio University Shonan Fujisawa Canpus)"
    }, 
    {
        "lat": 52.2842206, 
        "long": 8.0259672, 
        "name": "69 (Mathematik)"
    }, 
    {
        "lat": 35.0261709, 
        "long": 135.781375, 
        "name": "京都大学 (Kyoto University)"
    }, 
    {
        "lat": 35.6416052, 
        "long": 139.4036542, 
        "name": "中央大学 (Chuo University)"
    }, 
    {
        "lat": 35.6449043, 
        "long": 139.4088989, 
        "name": "明星大学 (Meisei University)"
    }, 
    {
        "lat": 35.6419137, 
        "long": 139.4226705, 
        "name": "帝京大学 (Teikyo University)"
    }, 
    {
        "lat": -1.4580725, 
        "long": -48.4351011, 
        "name": "Universidade Federal Rural da Amazônia"
    }, 
    {
        "lat": 48.0514527, 
        "long": 8.2082261, 
        "name": "Hochschule Furtwangen University"
    }, 
    {
        "lat": -6.1658327, 
        "long": 39.1917329, 
        "name": "The State University of Zanzibar (SUZA)"
    }, 
    {
        "lat": 31.5789983, 
        "long": 74.3549837, 
        "name": "University of Engineering and Technology"
    }, 
    {
        "lat": 54.6828594, 
        "long": 25.2586075, 
        "name": "Vilniaus Universiteto Medicinos Fakultetas"
    }, 
    {
        "lat": 60.1783635, 
        "long": 24.9263479, 
        "name": "Sibelius-Akatemia"
    }, 
    {
        "lat": 55.7213392, 
        "long": 12.5431587, 
        "name": "Danmarks Pædagogiske Universitet"
    }, 
    {
        "lat": 53.9188244, 
        "long": 27.5936432, 
        "name": "БГУИР 2к"
    }, 
    {
        "lat": 53.9177526, 
        "long": 27.5948419, 
        "name": "БГУИР 1к"
    }, 
    {
        "lat": 53.9166872, 
        "long": 27.5963686, 
        "name": "БГУИР 3к"
    }, 
    {
        "lat": 53.9181375, 
        "long": 27.5937015, 
        "name": "БГУИР 6к"
    }, 
    {
        "lat": 43.7165801, 
        "long": 10.388763, 
        "name": "Chimica farmaceutica"
    }, 
    {
        "lat": 52.5537197, 
        "long": 13.3595911, 
        "name": "TFH-Technische Fachhochschule Berlin - Forum Seestraße"
    }, 
    {
        "lat": 51.1439301, 
        "long": 14.9841624, 
        "name": "Berufsschulzentrum"
    }, 
    {
        "lat": -31.418099, 
        "long": -64.1881222, 
        "name": "Facultad de Arquitectura"
    }, 
    {
        "lat": 51.1490126, 
        "long": 14.9974426, 
        "name": "Hochschule Zittau/Görlitz GII"
    }, 
    {
        "lat": 51.4782633, 
        "long": -2.6230513, 
        "name": "Wills Hall"
    }, 
    {
        "lat": 51.4795573, 
        "long": -2.6281911, 
        "name": "Badock Hall"
    }, 
    {
        "lat": 51.4799044, 
        "long": -2.626373, 
        "name": "University Hall"
    }, 
    {
        "lat": 51.4768841, 
        "long": -2.6270596, 
        "name": "Churchill Hall"
    }, 
    {
        "lat": 47.1080672, 
        "long": 9.526329, 
        "name": "Private Universität im Fürstentum Liechtenstein (UFL)"
    }, 
    {
        "lat": 53.935355, 
        "long": 27.4900984, 
        "name": "Белорусский государственный университет физкультуры"
    }, 
    {
        "lat": 51.4675997, 
        "long": -0.0268937, 
        "name": "Lewisham Way Campus"
    }, 
    {
        "lat": 51.4681778, 
        "long": -0.0260553, 
        "name": "Lewisham College"
    }, 
    {
        "lat": 53.8865607, 
        "long": 27.5387561, 
        "name": "Академия управления при Президенте РБ"
    }, 
    {
        "lat": 53.9377196, 
        "long": 27.6690814, 
        "name": "БНТУ"
    }, 
    {
        "lat": 48.3066036, 
        "long": 14.2856183, 
        "name": "Kunstuni Linz - Universität für künstlerische und industrielle Gestaltung Linz"
    }, 
    {
        "lat": 53.9072388, 
        "long": 27.5778874, 
        "name": "МГЛУ"
    }, 
    {
        "lat": 53.2840636, 
        "long": -9.065571, 
        "name": "Cairnes Business School"
    }, 
    {
        "lat": 48.2027505, 
        "long": 17.631561, 
        "name": "Vysoká škola v Sládkovičove"
    }, 
    {
        "lat": 53.8929269, 
        "long": 27.5447489, 
        "name": "БГУ"
    }, 
    {
        "lat": 53.8935412, 
        "long": 27.5495948, 
        "name": "НИИ ФХП БГУ"
    }, 
    {
        "lat": 53.8945144, 
        "long": 27.5451902, 
        "name": "БГПУ"
    }, 
    {
        "lat": 53.8948397, 
        "long": 27.5527232, 
        "name": "БГЭУ к.5"
    }, 
    {
        "lat": 51.1559526, 
        "long": 14.9859101, 
        "name": "Volkshochschule"
    }, 
    {
        "lat": 53.902947, 
        "long": 27.5983464, 
        "name": "БГУИР 7к (ИИТ)"
    }, 
    {
        "lat": 53.8522507, 
        "long": 27.6080947, 
        "name": "NA"
    }, 
    {
        "lat": 53.9331702, 
        "long": 27.6368973, 
        "name": "ИСЗ"
    }, 
    {
        "lat": 53.9273174, 
        "long": 27.6224765, 
        "name": "NA"
    }, 
    {
        "lat": 53.9283468, 
        "long": 27.6217322, 
        "name": "NA"
    }, 
    {
        "lat": 53.9290119, 
        "long": 27.6223498, 
        "name": "NA"
    }, 
    {
        "lat": 53.9164621, 
        "long": 27.6023555, 
        "name": "БГУ"
    }, 
    {
        "lat": 53.9210289, 
        "long": 27.5931577, 
        "name": "Главный корпус БНТУ"
    }, 
    {
        "lat": 53.9234657, 
        "long": 27.5947489, 
        "name": "БНТУ 11 к"
    }, 
    {
        "lat": 53.9191133, 
        "long": 27.5899188, 
        "name": "БНТУ"
    }, 
    {
        "lat": 53.9126265, 
        "long": 27.6011197, 
        "name": "NA"
    }, 
    {
        "lat": 53.8929062, 
        "long": 27.6139744, 
        "name": "NA"
    }, 
    {
        "lat": 50.2670071, 
        "long": 10.9528866, 
        "name": "Medau Schule"
    }, 
    {
        "lat": 45.6544562, 
        "long": 25.5975675, 
        "name": "Campus Colina Universității"
    }, 
    {
        "lat": 52.3219665, 
        "long": 8.0417358, 
        "name": "Wabe Zentrum Klaus-Bahlsen-Haus"
    }, 
    {
        "lat": 53.8939041, 
        "long": 27.5875328, 
        "name": "NA"
    }, 
    {
        "lat": 49.0296999, 
        "long": 1.1460156, 
        "name": "Université d'Evreux"
    }, 
    {
        "lat": 33.5128607, 
        "long": -90.3420119, 
        "name": "Mississippi Valley State University"
    }, 
    {
        "lat": 50.7090619, 
        "long": 7.0892712, 
        "name": "Universität-Bonn - Ökologie der Kulturlandschaft – Tierökologie"
    }, 
    {
        "lat": -6.7824715, 
        "long": 39.2071707, 
        "name": "University of Dar es Salaam"
    }, 
    {
        "lat": -6.8086993, 
        "long": 39.2720406, 
        "name": "Muhimbili University"
    }, 
    {
        "lat": 48.1494272, 
        "long": 11.5795225, 
        "name": "Fakultät für Physik"
    }, 
    {
        "lat": 48.1508643, 
        "long": 11.5824286, 
        "name": "Juristisches Seminar"
    }, 
    {
        "lat": 12.1457473, 
        "long": -86.1623655, 
        "name": "Universidad Nacional Agraria"
    }, 
    {
        "lat": 57.9882058, 
        "long": 33.2566758, 
        "name": "Гидрологический институт"
    }, 
    {
        "lat": 12.1409404, 
        "long": -86.2859159, 
        "name": "Universidad Hispanoamericano"
    }, 
    {
        "lat": 36.3099845, 
        "long": 59.5266423, 
        "name": "دانشکده دامپزشکی"
    }, 
    {
        "lat": 36.3068927, 
        "long": 59.534204, 
        "name": "دانشکده ادبیات و علوم انسانی"
    }, 
    {
        "lat": 36.313408, 
        "long": 59.5271402, 
        "name": "دانشکده مهندسی"
    }, 
    {
        "lat": 36.3120179, 
        "long": 59.5316549, 
        "name": "دانشکده علوم"
    }, 
    {
        "lat": 36.3166474, 
        "long": 59.5306231, 
        "name": "دانشکده علوم اداری و اقتصادی"
    }, 
    {
        "lat": 35.6129033, 
        "long": 139.4074563, 
        "name": "大妻女子大学"
    }, 
    {
        "lat": 58.530423, 
        "long": 31.2937749, 
        "name": "филиал РГГУ"
    }, 
    {
        "lat": 53.8383978, 
        "long": 27.4764591, 
        "name": "NA"
    }, 
    {
        "lat": 53.8481615, 
        "long": 27.5093952, 
        "name": "Колледж Электроники"
    }, 
    {
        "lat": 58.5238619, 
        "long": 31.26221, 
        "name": "НГУ (ИНПО)"
    }, 
    {
        "lat": 50.102, 
        "long": 14.3862792, 
        "name": "Arcibiskupský římskokatolický seminář"
    }, 
    {
        "lat": 51.9126529, 
        "long": 7.9635443, 
        "name": "Berliner Straße"
    }, 
    {
        "lat": 35.6382855, 
        "long": 139.9266002, 
        "name": "了徳寺大学"
    }, 
    {
        "lat": 47.7797534, 
        "long": 9.6136558, 
        "name": "DHBW Ravensburg"
    }, 
    {
        "lat": 51.4987869, 
        "long": 7.4584556, 
        "name": "Sozialakademie"
    }, 
    {
        "lat": 51.0281226, 
        "long": -115.0343952, 
        "name": "University of Calgary - Biogeoscience Institute - Barrier Lake Field Station"
    }, 
    {
        "lat": 49.2813324, 
        "long": 7.1138528, 
        "name": "ASW Berufsakademie Saarland"
    }, 
    {
        "lat": 52.622251, 
        "long": 1.2411579, 
        "name": "University of East Anglia"
    }, 
    {
        "lat": 25.334324, 
        "long": 60.6215419, 
        "name": "دانشگاه بین المللی چابهار"
    }, 
    {
        "lat": 46.7961823, 
        "long": 7.1560079, 
        "name": "Université de Fribourg / Universität Freiburg Regina Mundi"
    }, 
    {
        "lat": 38.8992306, 
        "long": -77.0463218, 
        "name": "The George Washington University"
    }, 
    {
        "lat": 14.1673059, 
        "long": 121.2432948, 
        "name": "University of the Philippines Los Baños"
    }, 
    {
        "lat": 30.3525137, 
        "long": 76.3714099, 
        "name": "Thapar University"
    }, 
    {
        "lat": 46.7932224, 
        "long": 7.1581669, 
        "name": "Université de Fribourg Pérolles"
    }, 
    {
        "lat": 11.3921777, 
        "long": 76.6633719, 
        "name": "TIFR Cosmic ray station"
    }, 
    {
        "lat": 19.042236, 
        "long": -98.1956621, 
        "name": "Universidad Autónoma de Puebla"
    }, 
    {
        "lat": 46.7709025, 
        "long": 23.58497, 
        "name": "Universitatea Tehnică"
    }, 
    {
        "lat": 4.9207677, 
        "long": -75.0727739, 
        "name": "centro Universitario"
    }, 
    {
        "lat": 24.8158222, 
        "long": 121.7228112, 
        "name": "佛光大學"
    }, 
    {
        "lat": 50.9070649, 
        "long": 6.9785211, 
        "name": "Universität zu Köln Ökologisches Rheinlabor"
    }, 
    {
        "lat": 58.5517507, 
        "long": 31.3005819, 
        "name": "НовГУ"
    }, 
    {
        "lat": 51.6238461, 
        "long": -3.9477576, 
        "name": "Swansea Metropolitan University, Mount Pleasant"
    }, 
    {
        "lat": 58.519404, 
        "long": 31.2877929, 
        "name": "ФИНЭК (Новгородский филиал)"
    }, 
    {
        "lat": 19.2955731, 
        "long": -99.15734, 
        "name": "Facultad de Contaduria y Administracion - Posgrado"
    }, 
    {
        "lat": 48.7454159, 
        "long": 19.146121, 
        "name": "UMB Právnická fakulta"
    }, 
    {
        "lat": 47.6940173, 
        "long": 10.0373714, 
        "name": "Naturwissenschaftlich Technische Akademie Isny"
    }, 
    {
        "lat": 0.302671, 
        "long": 32.5542284, 
        "name": "Ugand Martyrs University"
    }, 
    {
        "lat": 38.2887805, 
        "long": 21.7887305, 
        "name": "Πανεπιστήμιο Πατρών"
    }, 
    {
        "lat": 49.8755406, 
        "long": 8.6588276, 
        "name": "Institut für Papierfabrikation und Mechanische Verfahrenstechnik"
    }, 
    {
        "lat": 49.8751166, 
        "long": 8.658175, 
        "name": "Institut für Allgemeine Pädagogik und Berufspädagogik"
    }, 
    {
        "lat": 49.8752474, 
        "long": 8.6587332, 
        "name": "Institut für Papierfabrikation und Mechanische Verfahrenstechnik"
    }, 
    {
        "lat": 49.8754648, 
        "long": 8.6594332, 
        "name": "Institut für Psychologie"
    }, 
    {
        "lat": 49.8738057, 
        "long": 8.6552588, 
        "name": "TU Darmstadt/Schloss"
    }, 
    {
        "lat": 49.8715465, 
        "long": 8.6401291, 
        "name": "Hochschulrechenzentrum"
    }, 
    {
        "lat": 49.873832, 
        "long": 8.6316543, 
        "name": "Studienkolleg für ausländische Studierende"
    }, 
    {
        "lat": 12.1570631, 
        "long": -68.9603092, 
        "name": "Curaçao University"
    }, 
    {
        "lat": 19.3313911, 
        "long": -99.1840979, 
        "name": "Edificio A de la dirección"
    }, 
    {
        "lat": 53.5680968, 
        "long": 9.9780535, 
        "name": "Department Chemie"
    }, 
    {
        "lat": 45.9433169, 
        "long": 13.6184704, 
        "name": "Università degli studi di Udine"
    }, 
    {
        "lat": 45.9398037, 
        "long": 13.6309026, 
        "name": "Università degli studi di Trieste"
    }, 
    {
        "lat": 38.5745329, 
        "long": 68.7933105, 
        "name": "РТСУ"
    }, 
    {
        "lat": 38.5891601, 
        "long": 68.7732313, 
        "name": "Донишгохи Миллии Точикистон"
    }, 
    {
        "lat": 38.5653464, 
        "long": 68.7947748, 
        "name": "Таджикский национальный университет"
    }, 
    {
        "lat": 38.5645648, 
        "long": 68.7891691, 
        "name": "Донишгохи техникии Точикистон ба номи академик М.Осими"
    }, 
    {
        "lat": 47.2184955, 
        "long": 8.6801204, 
        "name": "ZHAW - Departement Life Sciences und Facility Management"
    }, 
    {
        "lat": 50.2038397, 
        "long": 15.829772, 
        "name": "Univerzita Hradec Králové"
    }, 
    {
        "lat": 27.5727681, 
        "long": -99.4351153, 
        "name": "Texas A&M International University"
    }, 
    {
        "lat": 50.2133737, 
        "long": 15.8351215, 
        "name": "Univerzita Karlova, Lékařská Fakulta, Hradec Králové"
    }, 
    {
        "lat": 52.1566008, 
        "long": 4.4867847, 
        "name": "Oude Universiteitsbibliotheek"
    }, 
    {
        "lat": 35.5533235, 
        "long": 139.6485606, 
        "name": "慶應義塾大学 (Keio University)"
    }, 
    {
        "lat": 32.7173881, 
        "long": 51.5323273, 
        "name": "دانشگاه صنعتی اصفهان"
    }, 
    {
        "lat": 43.9901178, 
        "long": 22.8809948, 
        "name": "Нов Български Университет"
    }, 
    {
        "lat": 53.8150011, 
        "long": -1.6092865, 
        "name": "Kirkstall Brewery Residences"
    }, 
    {
        "lat": 33.6842062, 
        "long": 73.0555742, 
        "name": "Allama Iqbal Open University"
    }, 
    {
        "lat": 53.4269911, 
        "long": 14.5193585, 
        "name": "Zachodniopomorski Uniwersytet Technologiczny - Wydział Elektryczny"
    }, 
    {
        "lat": 45.4388725, 
        "long": 28.0576738, 
        "name": "Facultatea de Medicină"
    }, 
    {
        "lat": 49.8772519, 
        "long": 8.6574065, 
        "name": "E24"
    }, 
    {
        "lat": 45.807804, 
        "long": 15.9929105, 
        "name": "Fakultet Političkih Znanosti"
    }, 
    {
        "lat": 61.0648969, 
        "long": 28.0938256, 
        "name": "Lappeenrannan teknillinen yliopisto"
    }, 
    {
        "lat": -22.9415389, 
        "long": -43.1830694, 
        "name": "Universidade Santa Úrsula"
    }, 
    {
        "lat": 48.5680732, 
        "long": 13.4537609, 
        "name": "Universität Passau"
    }, 
    {
        "lat": 49.8694902, 
        "long": 8.6802909, 
        "name": "Institut für Botanik/Zoologie"
    }, 
    {
        "lat": 49.8669582, 
        "long": 8.6409529, 
        "name": "FB Elektrotechnik und Informationstechnik"
    }, 
    {
        "lat": 40.3405962, 
        "long": -74.6646163, 
        "name": "Cleveland Tower"
    }, 
    {
        "lat": 40.5193479, 
        "long": -85.6640949, 
        "name": "Indiana Wesleyan University"
    }, 
    {
        "lat": 21.0177686, 
        "long": -101.2523681, 
        "name": "Faciltad de Contabilidad y Administración"
    }, 
    {
        "lat": 21.0171546, 
        "long": -101.2534487, 
        "name": "Universidad de Guanajuato"
    }, 
    {
        "lat": 38.7533492, 
        "long": -9.1561421, 
        "name": "Universidade de Lisboa"
    }, 
    {
        "lat": 48.0612553, 
        "long": 8.5352882, 
        "name": "Hochschule Furtwangen University"
    }, 
    {
        "lat": 42.4915555, 
        "long": 78.3954609, 
        "name": "NA"
    }, 
    {
        "lat": 42.4934597, 
        "long": 78.398234, 
        "name": "NA"
    }, 
    {
        "lat": 43.3327228, 
        "long": -8.4132843, 
        "name": "Facultade de Ciencias da Comunicación"
    }, 
    {
        "lat": 43.3331265, 
        "long": -8.4136272, 
        "name": "Facultade de Socioloxía"
    }, 
    {
        "lat": 43.3305914, 
        "long": -8.4130705, 
        "name": "Facultade de Ciencias Económicas e Empresariais"
    }, 
    {
        "lat": 43.3313535, 
        "long": -8.4130818, 
        "name": "Escola Universitaria de Estudos Empresariais"
    }, 
    {
        "lat": 43.3340517, 
        "long": -8.4106415, 
        "name": "SAPE"
    }, 
    {
        "lat": 43.3342746, 
        "long": -8.4109965, 
        "name": "Comedor"
    }, 
    {
        "lat": 48.0556002, 
        "long": 8.2034216, 
        "name": "HFU, Studio"
    }, 
    {
        "lat": 50.8100797, 
        "long": 8.8105601, 
        "name": "HRZ"
    }, 
    {
        "lat": 50.8094125, 
        "long": 8.8106344, 
        "name": "Fachbereich Mathematik und Informatik"
    }, 
    {
        "lat": 50.8112092, 
        "long": 8.8078907, 
        "name": "Fachbereich Chemie"
    }, 
    {
        "lat": 52.4253043, 
        "long": 9.6184285, 
        "name": "Produktionstechnisches Zentrum"
    }, 
    {
        "lat": 49.2462775, 
        "long": 4.0407162, 
        "name": "Sciences Po, euro-american campus of Reims"
    }, 
    {
        "lat": 50.8116192, 
        "long": 8.8092932, 
        "name": "Biomedizinisches Forschungszentrum"
    }, 
    {
        "lat": 50.8072874, 
        "long": 8.8086797, 
        "name": "Fachbereich Biologie"
    }, 
    {
        "lat": 52.3921157, 
        "long": 16.8508599, 
        "name": "Uniwersytet Medyczny - Wydział Nauk o Zdrowiu"
    }, 
    {
        "lat": 31.5743657, 
        "long": 74.2997071, 
        "name": "University of Veterinary and Animal Sciences/"
    }, 
    {
        "lat": 43.718035, 
        "long": 10.9481595, 
        "name": "Urbanistica e Pianificazione"
    }, 
    {
        "lat": 45.4611907, 
        "long": 9.186723, 
        "name": "Università degli Studi di Milano"
    }, 
    {
        "lat": 31.4996513, 
        "long": 74.3018808, 
        "name": "Punjab University N Campus"
    }, 
    {
        "lat": 51.965925, 
        "long": 7.6032744, 
        "name": "Institut für Mathematische Logik"
    }, 
    {
        "lat": 41.1605833, 
        "long": -112.0652354, 
        "name": "Weber State University West Campus"
    }, 
    {
        "lat": 50.454636, 
        "long": 30.5243711, 
        "name": "Інститут філософії"
    }, 
    {
        "lat": 48.1500233, 
        "long": 11.5942831, 
        "name": "Ludwig-Maximilians-Universität"
    }, 
    {
        "lat": 53.8380305, 
        "long": 27.476004, 
        "name": "БГУ РФиЭ"
    }, 
    {
        "lat": 52.09846, 
        "long": 23.69404, 
        "name": "Брестский государственный университет им. А.С. Пушкина"
    }, 
    {
        "lat": 49.9324705, 
        "long": 11.5783793, 
        "name": "Gästehaus Uni Bayreuth"
    }, 
    {
        "lat": 50.7816194, 
        "long": 6.0487488, 
        "name": "Physikzentrum"
    }, 
    {
        "lat": 48.3457609, 
        "long": 8.2355206, 
        "name": "Mathematisches Forschungsinstitut Oberwolfach"
    }, 
    {
        "lat": -25.74083, 
        "long": 28.19682, 
        "name": "Tshwane u Tech"
    }, 
    {
        "lat": 42.4419396, 
        "long": 19.2372925, 
        "name": "Studentska menza"
    }, 
    {
        "lat": 42.4434547, 
        "long": 19.2411699, 
        "name": "NA"
    }, 
    {
        "lat": 6.0684029, 
        "long": 80.2265405, 
        "name": "University of Ruhuna, Faculty of Medicine"
    }, 
    {
        "lat": 50.1026303, 
        "long": 14.3929788, 
        "name": "Fakulta elektrotechnická ČVUT"
    }, 
    {
        "lat": 50.1033264, 
        "long": 14.3916818, 
        "name": "Fakulta strojní ČVUT"
    }, 
    {
        "lat": 49.8757121, 
        "long": 8.6586388, 
        "name": "Institut für Druckmaschinen und Druckverfahren"
    }, 
    {
        "lat": 42.432001, 
        "long": 19.2570793, 
        "name": "NA"
    }, 
    {
        "lat": -33.0207158, 
        "long": -71.6409668, 
        "name": "Facultad de Odontologia (Universidad de Valparaíso)"
    }, 
    {
        "lat": 36.3560422, 
        "long": 59.4892631, 
        "name": "موسسه آموزش عالی خیام"
    }, 
    {
        "lat": 47.2074019, 
        "long": -1.5743789, 
        "name": "École Nationale Supérieure Maritime"
    }, 
    {
        "lat": 8.5052292, 
        "long": 76.951795, 
        "name": "Library and College"
    }, 
    {
        "lat": 47.6932743, 
        "long": 17.6275749, 
        "name": "Széchenyi István Egyetem"
    }, 
    {
        "lat": 41.8519773, 
        "long": 12.6057963, 
        "name": "Tor Vergata facoltà di Scienze"
    }, 
    {
        "lat": 42.0042924, 
        "long": 21.4900319, 
        "name": "Поранешен ФОН"
    }, 
    {
        "lat": 48.0528508, 
        "long": 8.2052705, 
        "name": "HFU, L-Bau"
    }, 
    {
        "lat": 48.0535055, 
        "long": 8.2045609, 
        "name": "HFU Akademie"
    }, 
    {
        "lat": 54.1837764, 
        "long": 12.0950931, 
        "name": "Robbenstation"
    }, 
    {
        "lat": 39.509185, 
        "long": -74.323831, 
        "name": "Rutgers Marine Station"
    }, 
    {
        "lat": 34.1387153, 
        "long": 108.8748971, 
        "name": "Foreign Language Studies University, new Campus"
    }, 
    {
        "lat": 34.2069154, 
        "long": 108.9459032, 
        "name": "Foreign Language Studies University, old Campus"
    }, 
    {
        "lat": 34.2395306, 
        "long": 108.9596235, 
        "name": "西安建筑科技大学"
    }, 
    {
        "lat": 47.3991319, 
        "long": 8.0420919, 
        "name": "Fachhochschule Nordwestschweiz"
    }, 
    {
        "lat": 41.2328671, 
        "long": -112.0115768, 
        "name": "Stevens-Henager College"
    }, 
    {
        "lat": 52.3421405, 
        "long": 14.5542756, 
        "name": "Europa-Universität Viadrina"
    }, 
    {
        "lat": 59.971143, 
        "long": 30.3178085, 
        "name": "НИИ детских инфекций"
    }, 
    {
        "lat": 29.6298908, 
        "long": 52.5237148, 
        "name": "دانشگاه علوم پزشکی شیراز"
    }, 
    {
        "lat": 51.3405118, 
        "long": 12.3801382, 
        "name": "Studentenwerk; Akademische Verwaltung"
    }, 
    {
        "lat": 35.0234227, 
        "long": 135.779951, 
        "name": "京都大学 (Kyoto University)"
    }, 
    {
        "lat": 35.0229299, 
        "long": 135.777149, 
        "name": "京都大学 (Kyoto University)"
    }, 
    {
        "lat": 35.0202814, 
        "long": 135.774069, 
        "name": "京都大学 (Kyoto University)"
    }, 
    {
        "lat": 16.744167, 
        "long": -92.6310258, 
        "name": "NA"
    }, 
    {
        "lat": 40.4384579, 
        "long": -79.961056, 
        "name": "Eureka Building"
    }, 
    {
        "lat": -33.0219609, 
        "long": -71.549851, 
        "name": "Universidad de Valparaíso (Facultad de Humanidades)"
    }, 
    {
        "lat": 6.883029, 
        "long": 79.8866979, 
        "name": "Open University of Sri Lanka"
    }, 
    {
        "lat": 35.6140158, 
        "long": 139.636909, 
        "name": "多摩美大"
    }, 
    {
        "lat": 11.2409074, 
        "long": 49.2038521, 
        "name": "East African University"
    }, 
    {
        "lat": 4.4497642, 
        "long": -75.2004559, 
        "name": "Facultad de Derecho y Ciencias Politicas"
    }, 
    {
        "lat": 4.4495136, 
        "long": -75.2004169, 
        "name": "Centro de Idiomas"
    }, 
    {
        "lat": 4.4506541, 
        "long": -75.1997497, 
        "name": "Facultad de Humanidades"
    }, 
    {
        "lat": 30.6390808, 
        "long": 104.0462534, 
        "name": "西南民族大学"
    }, 
    {
        "lat": 47.9917148, 
        "long": 7.8480627, 
        "name": "Institut für IT im Gesundheitswesen"
    }, 
    {
        "lat": 53.8173694, 
        "long": -1.7763607, 
        "name": "Bradford University School of Management"
    }, 
    {
        "lat": 20.5914079, 
        "long": -100.4100358, 
        "name": "Universidad Autonoma de Querétaro"
    }, 
    {
        "lat": -6.1679941, 
        "long": 106.7904157, 
        "name": "Universitas Trisakti"
    }, 
    {
        "lat": 48.1044213, 
        "long": 11.4594415, 
        "name": "Max-Planck-Institut für Biochemie"
    }, 
    {
        "lat": 29.1703464, 
        "long": -110.9104532, 
        "name": "ITESM- Campus Sonora Norte"
    }, 
    {
        "lat": 34.213761, 
        "long": 108.8998551, 
        "name": "Arts and Technology University"
    }, 
    {
        "lat": 37.9408356, 
        "long": 58.3919189, 
        "name": "Türkmen döwlet ulag we aragatnaşyk instituty"
    }, 
    {
        "lat": -33.027035, 
        "long": -71.5401456, 
        "name": "Universidad Andres Bello"
    }, 
    {
        "lat": -6.257531, 
        "long": 106.8548495, 
        "name": "IPMI"
    }, 
    {
        "lat": 30.2931534, 
        "long": 120.1620458, 
        "name": "浙江工业大学"
    }, 
    {
        "lat": 17.4171696, 
        "long": 78.5255149, 
        "name": "University Library"
    }, 
    {
        "lat": 17.4158429, 
        "long": 78.5256436, 
        "name": "Law College"
    }, 
    {
        "lat": 17.406785, 
        "long": 78.518451, 
        "name": "Engineering College"
    }, 
    {
        "lat": 45.7580179, 
        "long": 22.9145365, 
        "name": "Universitatea Alma Mater"
    }, 
    {
        "lat": 57.6396123, 
        "long": 18.2912291, 
        "name": "Gotlands Studentkår Rindi"
    }, 
    {
        "lat": 53.8690739, 
        "long": 27.4875031, 
        "name": "Международный образовательный центр"
    }, 
    {
        "lat": 53.4178039, 
        "long": 12.8223578, 
        "name": "Faule Ort"
    }, 
    {
        "lat": 5.2785686, 
        "long": 115.1734011, 
        "name": "University Malaysia Sabah"
    }, 
    {
        "lat": -1.9468891, 
        "long": 30.1436669, 
        "name": "Adventist University"
    }, 
    {
        "lat": 44.3047594, 
        "long": 23.794708, 
        "name": "Facultatea de Medicină"
    }, 
    {
        "lat": 4.6071256, 
        "long": -74.0677002, 
        "name": "Universidad Jorge Tadeo Lozano"
    }, 
    {
        "lat": 4.6020096, 
        "long": -74.0625245, 
        "name": "Universidad America"
    }, 
    {
        "lat": 51.9692493, 
        "long": 7.6175277, 
        "name": "Institut für Ethnologie"
    }, 
    {
        "lat": 53.4187017, 
        "long": 14.5352669, 
        "name": "Uniwersytet Szczeciński wydział Filologiczny"
    }, 
    {
        "lat": 53.4186363, 
        "long": 14.5338706, 
        "name": "Uniwersytet Szczeciński wydział Prawa i Administracji"
    }, 
    {
        "lat": 53.4184764, 
        "long": 14.5364023, 
        "name": "Uniwersytet Szczeciński, Dziekanat wydziału Filologicznego"
    }, 
    {
        "lat": 53.4182546, 
        "long": 14.5377364, 
        "name": "Uniwersytet Szczeciński wydział Kultury Fizycznej"
    }, 
    {
        "lat": 53.4188922, 
        "long": 14.5343628, 
        "name": "Uniwersytet Szczeciński wydział Filologiczny, budynek nr 4"
    }, 
    {
        "lat": -6.1879213, 
        "long": 106.8409444, 
        "name": "Jakarta Art Institute"
    }, 
    {
        "lat": -6.3379366, 
        "long": 106.8331843, 
        "name": "Pancasila"
    }, 
    {
        "lat": 51.4906101, 
        "long": 11.9573148, 
        "name": "Burg Giebichenstein Kunsthochschule Halle"
    }, 
    {
        "lat": 51.3647766, 
        "long": 42.0783266, 
        "name": "Борисоглебский государственный педагогический институт"
    }, 
    {
        "lat": 38.7412908, 
        "long": -9.28502, 
        "name": "Universidade Atlantica"
    }, 
    {
        "lat": 53.7004428, 
        "long": 23.8173255, 
        "name": "Гродненский государственный медицинский университет"
    }, 
    {
        "lat": 53.698192, 
        "long": 23.841117, 
        "name": "Белорусский институт правознания Гродненский филиал"
    }, 
    {
        "lat": 53.695995, 
        "long": 23.848175, 
        "name": "Гродненский государственный аграрный университет"
    }, 
    {
        "lat": 53.6953863, 
        "long": 23.8264462, 
        "name": "Факультет биологии и экологии ГрГУ"
    }, 
    {
        "lat": 53.6801788, 
        "long": 23.8281976, 
        "name": "Факультет истории, коммуникации и туризма ГрГУ"
    }, 
    {
        "lat": 53.674713, 
        "long": 23.830982, 
        "name": "Высшая Духовная Семинария"
    }, 
    {
        "lat": 51.9619772, 
        "long": 7.6198025, 
        "name": "Fachbereich Wirtschaftswissenschaften"
    }, 
    {
        "lat": 51.9626624, 
        "long": 7.6226397, 
        "name": "FB 2 Kath.-Theol. Fakultät"
    }, 
    {
        "lat": 51.961741, 
        "long": 7.6206041, 
        "name": "FB 3 Rechtswissenschaften"
    }, 
    {
        "lat": 51.9606985, 
        "long": 7.6010794, 
        "name": "Fachbereich 5: Medizin"
    }, 
    {
        "lat": 51.9618091, 
        "long": 7.6232569, 
        "name": "FB 8 Geschichte/Philosophie"
    }, 
    {
        "lat": 51.9650051, 
        "long": 7.6232315, 
        "name": "Philologie"
    }, 
    {
        "lat": 51.9672295, 
        "long": 7.598431, 
        "name": "FB 11 Physik"
    }, 
    {
        "lat": 51.965342, 
        "long": 7.615201, 
        "name": "Biologie"
    }, 
    {
        "lat": 50.5768333, 
        "long": 8.6926844, 
        "name": "Fachbereich Psychologie"
    }, 
    {
        "lat": 42.4663098, 
        "long": -2.4284793, 
        "name": "Residencia Universitaria de La Rioja"
    }, 
    {
        "lat": 47.6395219, 
        "long": 6.8645227, 
        "name": "Faculté de Droit Léon Delarbre"
    }, 
    {
        "lat": 47.6394437, 
        "long": 6.8644634, 
        "name": "UFR Sciences, Techniques et Gestion Industrielles"
    }, 
    {
        "lat": 40.5892412, 
        "long": -4.1512597, 
        "name": "Universidad María Cristina"
    }, 
    {
        "lat": 44.5377468, 
        "long": 18.6747634, 
        "name": "Fakultet elektrotehnike"
    }, 
    {
        "lat": 44.53191, 
        "long": 18.6868059, 
        "name": "Filozofski fakultet"
    }, 
    {
        "lat": 44.5385238, 
        "long": 18.6656057, 
        "name": "Medicinski fakultet"
    }, 
    {
        "lat": 44.5398641, 
        "long": 18.6630526, 
        "name": "Prirodno-matematički fakultet"
    }, 
    {
        "lat": 44.5391963, 
        "long": 18.6623864, 
        "name": "Ekonomski fakultet"
    }, 
    {
        "lat": 53.2289798, 
        "long": -4.1306317, 
        "name": "Bangor University"
    }, 
    {
        "lat": 51.3083277, 
        "long": 13.0024531, 
        "name": "Universität Leipzig, Observatorium Collm"
    }, 
    {
        "lat": -6.1796489, 
        "long": 106.8766522, 
        "name": "Universitas Jayabaya"
    }, 
    {
        "lat": 51.4803411, 
        "long": -2.6245192, 
        "name": "Hiatt Baker Hall"
    }, 
    {
        "lat": 17.4184717, 
        "long": 78.5290254, 
        "name": "Department of Physics"
    }, 
    {
        "lat": 17.4180459, 
        "long": 78.5302699, 
        "name": "Department of Chemistry"
    }, 
    {
        "lat": 17.4176282, 
        "long": 78.5316003, 
        "name": "Department of Bio Chemistry"
    }, 
    {
        "lat": 17.4148929, 
        "long": 78.5312484, 
        "name": "Tagore Auditorium"
    }, 
    {
        "lat": 14.2913609, 
        "long": 120.9587366, 
        "name": "Philippine Christian University (PCU)"
    }, 
    {
        "lat": 49.4472496, 
        "long": 7.7584065, 
        "name": "Hochschule Kaiserslautern, Standort Schoenstraße"
    }, 
    {
        "lat": 28.5444176, 
        "long": 77.1893001, 
        "name": "Indian Institute Of Technology"
    }, 
    {
        "lat": 43.137696, 
        "long": -79.0372967, 
        "name": "Niagara University"
    }, 
    {
        "lat": 57.3961973, 
        "long": 11.9259607, 
        "name": "Onsala Rymdobservatorium"
    }, 
    {
        "lat": 52.2412014, 
        "long": 21.0033369, 
        "name": "PEDAGOGIUM Wyższa Szkoła Nauk Społecznych"
    }, 
    {
        "lat": 50.8253239, 
        "long": 8.7767136, 
        "name": "Studentendorf"
    }, 
    {
        "lat": 53.063872, 
        "long": -0.9630043, 
        "name": "Brackenhurst"
    }, 
    {
        "lat": 40.4057262, 
        "long": -3.8391207, 
        "name": "Facultad de Informática UPM"
    }, 
    {
        "lat": 12.9898666, 
        "long": 80.2293448, 
        "name": "Building Sciences"
    }, 
    {
        "lat": 12.9894525, 
        "long": 80.2293702, 
        "name": "Computer Sciences"
    }, 
    {
        "lat": 12.9889988, 
        "long": 80.2295579, 
        "name": "Computer Science Department"
    }, 
    {
        "lat": 50.1014965, 
        "long": 14.3919974, 
        "name": "Kloknerův výzkumný a zkušební ústav hmot a konstrukcí stavebních ČVUT"
    }, 
    {
        "lat": 50.1017395, 
        "long": 14.3907509, 
        "name": "Rektorát ČVUT"
    }, 
    {
        "lat": 19.402314, 
        "long": -99.2626905, 
        "name": "Anahuac del Norte"
    }, 
    {
        "lat": 46.4666416, 
        "long": -80.9738711, 
        "name": "Laurentian University"
    }, 
    {
        "lat": -27.4764339, 
        "long": 153.03926, 
        "name": "Shafston Institute of Technology"
    }, 
    {
        "lat": 19.4035241, 
        "long": -99.2607718, 
        "name": "Universidad Anahuac del Norte"
    }, 
    {
        "lat": 19.3706521, 
        "long": -99.2632795, 
        "name": "Universidad Iberoamericana"
    }, 
    {
        "lat": 14.2841661, 
        "long": 121.0025792, 
        "name": "University of Perpetual Help GMA"
    }, 
    {
        "lat": 48.0492183, 
        "long": 8.209038, 
        "name": "HFU, K-Bau"
    }, 
    {
        "lat": 27.526067, 
        "long": -109.934888, 
        "name": "Universidad la Salle"
    }, 
    {
        "lat": 50.8108324, 
        "long": 8.77403, 
        "name": "Philipps-Universität Marburg - Campus Stadtmitte"
    }, 
    {
        "lat": -22.904557, 
        "long": -43.1789196, 
        "name": "UniverCidade"
    }, 
    {
        "lat": 52.3797374, 
        "long": 9.7226944, 
        "name": "HLRN-II"
    }, 
    {
        "lat": 52.379462, 
        "long": 9.7228342, 
        "name": "Philosophische Fakultät"
    }, 
    {
        "lat": 43.7176663, 
        "long": 10.3970149, 
        "name": "Facoltà di Lettere"
    }, 
    {
        "lat": 52.1705046, 
        "long": 21.0139729, 
        "name": "Szkoła Wyższa Psychologii Społecznej"
    }, 
    {
        "lat": 53.5674512, 
        "long": 9.9759099, 
        "name": "Institut für Pharmazie"
    }, 
    {
        "lat": 53.5682928, 
        "long": 9.9740457, 
        "name": "Fachbereich Geowissenschaften"
    }, 
    {
        "lat": 53.5679125, 
        "long": 9.9741505, 
        "name": "Fachbereich Mathematik"
    }, 
    {
        "lat": 53.569194, 
        "long": 9.9778354, 
        "name": "Fachbereich Evangelische Theologie"
    }, 
    {
        "lat": 55.6809201, 
        "long": 12.5773718, 
        "name": "Det Teologiske Fakultet, Københavns Universitet"
    }, 
    {
        "lat": 55.6811095, 
        "long": 12.5773609, 
        "name": "Det Teologiske Fakultet, Københavns Universitet"
    }, 
    {
        "lat": -43.5232778, 
        "long": 172.5823435, 
        "name": "University of Canterbury"
    }, 
    {
        "lat": 23.1418058, 
        "long": -82.3518987, 
        "name": "Seminario San Carlos y San Ambrosio"
    }, 
    {
        "lat": 44.4897021, 
        "long": 11.3480152, 
        "name": "Ex Chiesa di Santa Lucia"
    }, 
    {
        "lat": 37.3363165, 
        "long": -121.8911079, 
        "name": "Lincoln Law School"
    }, 
    {
        "lat": 45.8381071, 
        "long": 1.2374331, 
        "name": "Faculté Sciences et Techniques de Limoges - LaBorie"
    }, 
    {
        "lat": 48.51308, 
        "long": -2.7415938, 
        "name": "Campus Mazier"
    }, 
    {
        "lat": 28.0990773, 
        "long": -15.4198732, 
        "name": "Rectorado de la Universidad de Las Palmas de Gran Canaria"
    }, 
    {
        "lat": -6.2018774, 
        "long": 106.7816055, 
        "name": "Bina Nusantara"
    }, 
    {
        "lat": 45.068643, 
        "long": 38.9823742, 
        "name": "ВЗФИ"
    }, 
    {
        "lat": 48.7884645, 
        "long": 2.4497155, 
        "name": "Bâtiment d'économie"
    }, 
    {
        "lat": 45.0327158, 
        "long": 38.9730851, 
        "name": "КубГТУ"
    }, 
    {
        "lat": -33.2458409, 
        "long": 149.1253618, 
        "name": "Charles Sturt University, Orange Campus"
    }, 
    {
        "lat": 29.64498, 
        "long": 91.1450339, 
        "name": "NA"
    }, 
    {
        "lat": 50.8119479, 
        "long": 8.8091789, 
        "name": "Institut für Virologie"
    }, 
    {
        "lat": 48.0148719, 
        "long": 0.2055516, 
        "name": "École Normale d'Instituteurs (annexe)"
    }, 
    {
        "lat": 52.2666641, 
        "long": 21.0000308, 
        "name": "Europejska Akademia Sztuk"
    }, 
    {
        "lat": 51.3816966, 
        "long": 0.5144671, 
        "name": "University for the Creative Arts at Rochester"
    }, 
    {
        "lat": 13.9491152, 
        "long": 121.6212337, 
        "name": "Manuel S. Enverga University Covered Court"
    }, 
    {
        "lat": 49.7927777, 
        "long": 9.9340209, 
        "name": "Musikhochschule"
    }, 
    {
        "lat": 38.8775252, 
        "long": 121.521837, 
        "name": "大连理工大学（西门）"
    }, 
    {
        "lat": 38.8777592, 
        "long": 121.527652, 
        "name": "大连理工大学（东门）"
    }, 
    {
        "lat": 50.4004305, 
        "long": 7.6134754, 
        "name": "WHU Otto Beisheim School of Management"
    }, 
    {
        "lat": 54.0769061, 
        "long": 12.1151111, 
        "name": "Fakultät für Maschinenbau und Schiffstechnik"
    }, 
    {
        "lat": 45.382667, 
        "long": 5.576269, 
        "name": "Aristote"
    }, 
    {
        "lat": 50.5697146, 
        "long": 8.671943, 
        "name": "Pflanzenversuchsanlage"
    }, 
    {
        "lat": 43.0574955, 
        "long": -89.4223448, 
        "name": "Edgewood College"
    }, 
    {
        "lat": 48.5159363, 
        "long": -2.7773404, 
        "name": "IUFM"
    }, 
    {
        "lat": 54.0750253, 
        "long": 12.0977832, 
        "name": "Agrar- und Umweltwissenschaftliche Fakultät"
    }, 
    {
        "lat": 47.6410428, 
        "long": 26.2449267, 
        "name": "Universitatea Ștefan cel Mare"
    }, 
    {
        "lat": 42.9811386, 
        "long": -85.5922503, 
        "name": "Cornerstone University"
    }, 
    {
        "lat": 43.5132238, 
        "long": -83.965027, 
        "name": "Saginaw Valley State University"
    }, 
    {
        "lat": 41.906158, 
        "long": -84.0146656, 
        "name": "Siena Heights University"
    }, 
    {
        "lat": 41.155315, 
        "long": -87.8744887, 
        "name": "Olivet Nazarene University"
    }, 
    {
        "lat": 41.8761445, 
        "long": -87.6251612, 
        "name": "Roosevelt University"
    }, 
    {
        "lat": 39.7298743, 
        "long": -89.6183313, 
        "name": "University of Illinois Springfield"
    }, 
    {
        "lat": 23.7357159, 
        "long": 90.3951064, 
        "name": "Institute of Fine Arts, Dhaka University"
    }, 
    {
        "lat": 44.8499674, 
        "long": -92.623808, 
        "name": "Wall Amphitheatre"
    }, 
    {
        "lat": 5.5497464, 
        "long": -73.3544052, 
        "name": "Universidad Pedagógica y Tecnológica de Colombia"
    }, 
    {
        "lat": 10.324869, 
        "long": 123.953018, 
        "name": "University of Cebu (Mandaue)"
    }, 
    {
        "lat": 10.3264397, 
        "long": 123.945207, 
        "name": "University of Visayas (Mandaue)"
    }, 
    {
        "lat": 19.4253839, 
        "long": -70.7275903, 
        "name": "Universidad Autónoma De Santo Domingo"
    }, 
    {
        "lat": 42.8388598, 
        "long": -72.7347734, 
        "name": "Marlboro College"
    }, 
    {
        "lat": 43.6005464, 
        "long": -73.0008835, 
        "name": "College of Saint Joseph"
    }, 
    {
        "lat": 38.0353682, 
        "long": -78.5035322, 
        "name": "University of Virginia"
    }, 
    {
        "lat": 37.2481998, 
        "long": -76.5005061, 
        "name": "Virginia Institute of Marine Science"
    }, 
    {
        "lat": 39.0562303, 
        "long": -77.4449263, 
        "name": "George Washington University Virginia Campus"
    }, 
    {
        "lat": 39.0713497, 
        "long": -77.4649377, 
        "name": "Howard Hughes Medical Institute - Janelia Research Campus"
    }, 
    {
        "lat": 38.8967251, 
        "long": -77.1894771, 
        "name": "Virginia Tech/UVA"
    }, 
    {
        "lat": 52.3685931, 
        "long": 4.8896879, 
        "name": "Spui25"
    }, 
    {
        "lat": 32.731155, 
        "long": -97.1150166, 
        "name": "University of Texas at Arlington"
    }, 
    {
        "lat": 30.0298281, 
        "long": -99.1299247, 
        "name": "Schreiner University"
    }, 
    {
        "lat": 32.7095538, 
        "long": -97.3630816, 
        "name": "Texas Christian University"
    }, 
    {
        "lat": 29.2819097, 
        "long": -94.8665858, 
        "name": "Texas A&M University at Galveston Center for Marine Training and Safety"
    }, 
    {
        "lat": 30.0893872, 
        "long": -95.9963458, 
        "name": "KPVU-FM (Prairie View)"
    }, 
    {
        "lat": 36.1320979, 
        "long": -86.8440125, 
        "name": "Aquinas College"
    }, 
    {
        "lat": 36.3414523, 
        "long": -88.8642273, 
        "name": "University of Tennessee at Martin"
    }, 
    {
        "lat": 35.1330753, 
        "long": -89.98263, 
        "name": "Memphis Theological Seminary"
    }, 
    {
        "lat": 34.0754298, 
        "long": -81.0748147, 
        "name": "Columbia International University"
    }, 
    {
        "lat": 33.4984, 
        "long": -80.8478, 
        "name": "Felton Laboratory School"
    }, 
    {
        "lat": 33.499, 
        "long": -80.8475, 
        "name": "Felton Preschool"
    }, 
    {
        "lat": 33.4987, 
        "long": -80.8495, 
        "name": "Tumer A - wing"
    }, 
    {
        "lat": 33.4987, 
        "long": -80.8489, 
        "name": "Tumer B - wing"
    }, 
    {
        "lat": 33.4992, 
        "long": -80.8499, 
        "name": "Mays Hall One"
    }, 
    {
        "lat": 33.4997, 
        "long": -80.8505, 
        "name": "Popular Hall"
    }, 
    {
        "lat": 33.5003, 
        "long": -80.8477, 
        "name": "Fine Arts Center"
    }, 
    {
        "lat": 33.5, 
        "long": -80.8472, 
        "name": "Nix Hall"
    }, 
    {
        "lat": 33.4999, 
        "long": -80.8462, 
        "name": "Staley Hall"
    }, 
    {
        "lat": -6.2360288, 
        "long": 106.7472946, 
        "name": "Universitas Budi Luhur"
    }, 
    {
        "lat": 51.7207169, 
        "long": 94.4368398, 
        "name": "Тувинский государственный университет"
    }, 
    {
        "lat": 41.4919325, 
        "long": -71.4225557, 
        "name": "University of Rhode Island Narragansett Bay Campus"
    }, 
    {
        "lat": 41.4861229, 
        "long": -71.5271299, 
        "name": "University of Rhode Island"
    }, 
    {
        "lat": 18.4027738, 
        "long": -66.0493798, 
        "name": "Universidad De Puerto Rico - Rio Piedras"
    }, 
    {
        "lat": 18.1944462, 
        "long": -67.1430493, 
        "name": " Pontificia Universidad Católica de Puerto Rico Recinto de Mayagüez"
    }, 
    {
        "lat": 18.4666395, 
        "long": -66.1184168, 
        "name": "Centro de Estudios Avanzados de Puerto Rico y el Caribe"
    }, 
    {
        "lat": 17.9847872, 
        "long": -66.1123328, 
        "name": "Catholic University of Puerto Rico"
    }, 
    {
        "lat": 44.0481388, 
        "long": -123.079777, 
        "name": "Northwest Christian University"
    }, 
    {
        "lat": 44.0453484, 
        "long": -123.0757923, 
        "name": "University of Oregon"
    }, 
    {
        "lat": 41.3453577, 
        "long": -75.9715883, 
        "name": "Misercordia College"
    }, 
    {
        "lat": 40.5400689, 
        "long": -78.4086255, 
        "name": "Penn State University- Altoona Campus"
    }, 
    {
        "lat": 40.5034672, 
        "long": -78.6382564, 
        "name": "Saint Francis University"
    }, 
    {
        "lat": 39.8993474, 
        "long": -80.1866285, 
        "name": "Waynesburg University"
    }, 
    {
        "lat": 39.9519703, 
        "long": -76.702768, 
        "name": "Pennsylvania State University - York Campus"
    }, 
    {
        "lat": 39.9951127, 
        "long": -75.2379589, 
        "name": "Saint Josephs University"
    }, 
    {
        "lat": 39.842037, 
        "long": -77.5416562, 
        "name": "Pennsylvania State University - Mount Alto Campus"
    }, 
    {
        "lat": 39.9987514, 
        "long": -76.3565756, 
        "name": "Millersville University of Pennsylvania"
    }, 
    {
        "lat": 40.9834174, 
        "long": -76.0296493, 
        "name": "Pennsylvania State University - Hazleton Campus"
    }, 
    {
        "lat": 41.4400805, 
        "long": -75.6204662, 
        "name": "Pennsylvania State University Worthington Scranton Campus"
    }, 
    {
        "lat": 40.5510975, 
        "long": -79.6973011, 
        "name": "Penn State University-New Kensington Campus"
    }, 
    {
        "lat": 40.2761807, 
        "long": -79.5314283, 
        "name": "University of Pittsburgh at Greensburg"
    }, 
    {
        "lat": 39.9949, 
        "long": -75.2427, 
        "name": "Saint Joseph's University"
    }, 
    {
        "lat": 35.512841, 
        "long": -97.6297649, 
        "name": "Southern Nazarene University"
    }, 
    {
        "lat": 35.6289921, 
        "long": -95.939994, 
        "name": "Oklahoma State University Institute of Technology"
    }, 
    {
        "lat": 40.9037096, 
        "long": -81.1092637, 
        "name": "University of Mount Union"
    }, 
    {
        "lat": 40.7295282, 
        "long": -73.9905606, 
        "name": "The Cooper Union"
    }, 
    {
        "lat": 42.4470171, 
        "long": -76.4829955, 
        "name": "Cornell University"
    }, 
    {
        "lat": 36.108861, 
        "long": -115.1383318, 
        "name": "Nevada Southern University (historical)"
    }, 
    {
        "lat": 40.7712124, 
        "long": -73.9845834, 
        "name": "NA"
    }, 
    {
        "lat": 43.0526611, 
        "long": -75.4059512, 
        "name": "Hamilton College"
    }, 
    {
        "lat": 40.6213917, 
        "long": -74.0911136, 
        "name": "Saint John's University Staten Island Campus"
    }, 
    {
        "lat": 34.7288478, 
        "long": -106.7049722, 
        "name": "University of New Mexico - Valencia Branch"
    }, 
    {
        "lat": 42.7965185, 
        "long": -77.8206437, 
        "name": "State University of New York at Geneseo"
    }, 
    {
        "lat": 42.4509517, 
        "long": -79.3361858, 
        "name": "State University of New York at Fredonia"
    }, 
    {
        "lat": 44.592659, 
        "long": -75.1621153, 
        "name": "Saint Lawrence University"
    }, 
    {
        "lat": 35.8858816, 
        "long": -106.3198677, 
        "name": "University of New Mexico Los Alamos"
    }, 
    {
        "lat": 32.2818104, 
        "long": -106.7551728, 
        "name": "New Mexico State University"
    }, 
    {
        "lat": 40.7696619, 
        "long": -73.9826249, 
        "name": "New York Institute of Technology Manhattan Campus"
    }, 
    {
        "lat": 43.113641, 
        "long": -77.6338971, 
        "name": "University of Rochester South Campus"
    }, 
    {
        "lat": 53.7969297, 
        "long": -1.5488644, 
        "name": "Leeds Law School"
    }, 
    {
        "lat": 43.1360106, 
        "long": -70.9320003, 
        "name": "University of New Hampshire"
    }, 
    {
        "lat": 43.4118796, 
        "long": -71.9780266, 
        "name": "Colby-Sawyer College"
    }, 
    {
        "lat": 41.2652762, 
        "long": -95.9475144, 
        "name": "Creighton University"
    }, 
    {
        "lat": 40.8388897, 
        "long": -96.6494588, 
        "name": "Nebraska Wesleyan University"
    }, 
    {
        "lat": 34.2265192, 
        "long": -77.8775764, 
        "name": "University of North Carolina at Wilmington"
    }, 
    {
        "lat": 36.134335, 
        "long": -80.2781152, 
        "name": "Wake Forest University"
    }, 
    {
        "lat": 41.1500779, 
        "long": -95.9183397, 
        "name": "Bellevue University"
    }, 
    {
        "lat": 35.3109378, 
        "long": -83.1818122, 
        "name": "Western Carolina University"
    }, 
    {
        "lat": 35.6181669, 
        "long": -82.5656826, 
        "name": "University of North Carolina - Asheville"
    }, 
    {
        "lat": 30.3524197, 
        "long": -89.1364281, 
        "name": "University of Southern Mississippi-Gulf Park Campus"
    }, 
    {
        "lat": 45.9382598, 
        "long": -112.508909, 
        "name": "Highlands College, Montana Tech of the University of Montana"
    }, 
    {
        "lat": 46.600194, 
        "long": -112.0379913, 
        "name": "Carrol College"
    }, 
    {
        "lat": 47.4859462, 
        "long": -111.2696069, 
        "name": "Montana State University College of Technology - Great Falls"
    }, 
    {
        "lat": 32.2967594, 
        "long": -90.2075661, 
        "name": "Jackson State University"
    }, 
    {
        "lat": 45.77077, 
        "long": -108.61282, 
        "name": "Montana State University-Billings College of Technology"
    }, 
    {
        "lat": 34.7759298, 
        "long": -89.4470225, 
        "name": "Rust College"
    }, 
    {
        "lat": 39.1069394, 
        "long": -94.5605232, 
        "name": "Kansas City University of Medicine and Biosciences"
    }, 
    {
        "lat": 40.240082, 
        "long": -94.6822203, 
        "name": "Conception Seminary College"
    }, 
    {
        "lat": 37.2184775, 
        "long": -93.2862465, 
        "name": "Drury University"
    }, 
    {
        "lat": 39.7572168, 
        "long": -94.7871858, 
        "name": "Missouri Western State University"
    }, 
    {
        "lat": 38.860319, 
        "long": -91.950181, 
        "name": "William Woods University"
    }, 
    {
        "lat": 37.9536526, 
        "long": -91.774047, 
        "name": "Missouri University of Science and Technology"
    }, 
    {
        "lat": 38.5908246, 
        "long": -90.3454474, 
        "name": "Webster University"
    }, 
    {
        "lat": 44.6683001, 
        "long": -70.1465892, 
        "name": "University of Maine at Farmington"
    }, 
    {
        "lat": 42.3352916, 
        "long": -71.1703275, 
        "name": "Boston College"
    }, 
    {
        "lat": 42.341768, 
        "long": -71.1939436, 
        "name": "Boston College (Newton Campus)"
    }, 
    {
        "lat": 42.3662654, 
        "long": -71.1219945, 
        "name": "Harvard Business School"
    }, 
    {
        "lat": 42.3714082, 
        "long": -71.1220418, 
        "name": "John F Kennedy School of Government"
    }, 
    {
        "lat": 32.5269104, 
        "long": -92.6463257, 
        "name": "Louisiana Tech University"
    }, 
    {
        "lat": 30.457415, 
        "long": -90.0925772, 
        "name": "Tulane National Primate Research Center"
    }, 
    {
        "lat": 30.5271397, 
        "long": -90.1131281, 
        "name": "Saint Joseph Seminary College"
    }, 
    {
        "lat": 38.0372094, 
        "long": -84.5087797, 
        "name": "Lexington Theological Seminary"
    }, 
    {
        "lat": 37.7081176, 
        "long": -85.2605153, 
        "name": "Saint Catharine College"
    }, 
    {
        "lat": 38.958058, 
        "long": -95.2477503, 
        "name": "University of Kansas"
    }, 
    {
        "lat": 38.9649628, 
        "long": -95.2501505, 
        "name": "University of Kansas - Lawrence Campus Baehr Audio - Reader Center"
    }, 
    {
        "lat": 38.9650245, 
        "long": -95.2504705, 
        "name": "University of Kansas - Lawrence Campus Broadcasting Hall"
    }, 
    {
        "lat": 38.9489383, 
        "long": -95.2614375, 
        "name": "University of Kansas - Lawrence Campus Hambleton Hall"
    }, 
    {
        "lat": 38.9643319, 
        "long": -95.2508559, 
        "name": "University of Kansas - Lawrence Campus Max Kade Center"
    }, 
    {
        "lat": 38.9491719, 
        "long": -95.2611961, 
        "name": "University of Kansas - Lawrence Campus Moore Hall"
    }, 
    {
        "lat": 38.9489403, 
        "long": -95.2620276, 
        "name": "University of Kansas - Lawrence Campus Parker Hall"
    }, 
    {
        "lat": 39.5095783, 
        "long": -87.4638427, 
        "name": "Saint Mary-of-the-Woods College"
    }, 
    {
        "lat": 40.4594049, 
        "long": -85.4975254, 
        "name": "Taylor University"
    }, 
    {
        "lat": 41.7031036, 
        "long": -86.2391732, 
        "name": "University of Notre Dame"
    }, 
    {
        "lat": 32.831806, 
        "long": -83.6499029, 
        "name": "Mercer University"
    }, 
    {
        "lat": 34.594044, 
        "long": -83.3564616, 
        "name": "Toccoa Falls College"
    }, 
    {
        "lat": 25.8072222, 
        "long": -80.28, 
        "name": "Embry Riddle Aeronautical Unversity"
    }, 
    {
        "lat": 37.0753547, 
        "long": -121.9939475, 
        "name": "Bethany University"
    }, 
    {
        "lat": 38.0691713, 
        "long": -122.2303281, 
        "name": "California Maritime Academy"
    }, 
    {
        "lat": 32.537705, 
        "long": -83.8973564, 
        "name": "Fort Valley State University"
    }, 
    {
        "lat": 33.0820873, 
        "long": -83.2307102, 
        "name": "Georgia College and State University"
    }, 
    {
        "lat": 33.0454048, 
        "long": -84.1529717, 
        "name": "Gordon State College"
    }, 
    {
        "lat": 31.5837845, 
        "long": -84.2121311, 
        "name": "Darton State College"
    }, 
    {
        "lat": 32.8415433, 
        "long": -83.6349797, 
        "name": "Walter F. George School of Law"
    }, 
    {
        "lat": 33.872329, 
        "long": -84.2652029, 
        "name": "Mercer University in Atlanta"
    }, 
    {
        "lat": 32.1682, 
        "long": -81.2115, 
        "name": "Georgia Institute of Technology, Savannah Campus"
    }, 
    {
        "lat": 33.7347682, 
        "long": -118.3339174, 
        "name": "Marymount California University"
    }, 
    {
        "lat": 34.201558, 
        "long": -118.1734475, 
        "name": "California Institute of Technology - Jet Propulsion Laboratory"
    }, 
    {
        "lat": 34.4130161, 
        "long": -119.8485189, 
        "name": "University of California - Santa Barbara"
    }, 
    {
        "lat": 39.13462, 
        "long": -123.1569554, 
        "name": "Ten Thousand Buddhas University"
    }, 
    {
        "lat": 37.8211066, 
        "long": -122.2633971, 
        "name": "Samuel Merritt University"
    }, 
    {
        "lat": 32.8218437, 
        "long": -117.1363014, 
        "name": "Coleman University"
    }, 
    {
        "lat": 39.7513801, 
        "long": -105.2224914, 
        "name": "Colorado School of Mines"
    }, 
    {
        "lat": 38.308195, 
        "long": -104.5780057, 
        "name": "Colorado State University-Pueblo"
    }, 
    {
        "lat": 30.6949121, 
        "long": -88.1797251, 
        "name": "University of South Alabama"
    }, 
    {
        "lat": 34.1250958, 
        "long": -93.0521174, 
        "name": "Ouachita Baptist University"
    }, 
    {
        "lat": 45.7530732, 
        "long": 22.8998933, 
        "name": "Facultatea de Inginerie"
    }, 
    {
        "lat": 34.6153871, 
        "long": -112.4503819, 
        "name": "Embry Riddle Aeronautical University Prescott Arizona Campus"
    }, 
    {
        "lat": 12.0160591, 
        "long": 8.5065423, 
        "name": "Bayero University"
    }, 
    {
        "lat": 11.9692949, 
        "long": 8.4255078, 
        "name": "Bayero University Kano (new campus)"
    }, 
    {
        "lat": 9.9193908, 
        "long": -84.2730115, 
        "name": "UN Universidad para la Paz"
    }, 
    {
        "lat": 54.0983735, 
        "long": 13.3755499, 
        "name": "NA"
    }, 
    {
        "lat": 54.0979149, 
        "long": 13.3752995, 
        "name": "Institut für Anatomie und Zellbiologie"
    }, 
    {
        "lat": -6.3538465, 
        "long": 106.8123221, 
        "name": "Institut Sains dan Tehnologi Indonesia"
    }, 
    {
        "lat": 13.7692308, 
        "long": 100.5304309, 
        "name": "วิทยาลัยแพทยศาสตร์พระมงกุฎเกล้า"
    }, 
    {
        "lat": 32.6066682, 
        "long": -85.4912869, 
        "name": "Ludwig von Mises Institute"
    }, 
    {
        "lat": 38.288371, 
        "long": 21.7887686, 
        "name": "Electrical & Computer Engineering"
    }, 
    {
        "lat": 38.2859147, 
        "long": 21.786802, 
        "name": "Administration Building, Building A"
    }, 
    {
        "lat": 38.284653, 
        "long": 21.7878977, 
        "name": "Computer Engineering & Informatics, Building B"
    }, 
    {
        "lat": 38.2860479, 
        "long": 21.7899199, 
        "name": "University Hall of Residence"
    }, 
    {
        "lat": 38.2889328, 
        "long": 21.7903298, 
        "name": "Civil Engineering"
    }, 
    {
        "lat": 38.2904553, 
        "long": 21.7897719, 
        "name": "Mathematics"
    }, 
    {
        "lat": 38.2902869, 
        "long": 21.7863043, 
        "name": "Conference Center"
    }, 
    {
        "lat": -6.2809815, 
        "long": 106.8392837, 
        "name": "Universitas Nasional"
    }, 
    {
        "lat": 50.5112818, 
        "long": 6.0747409, 
        "name": "Station Scientifique des Hautes-Fagnes (ULg)"
    }, 
    {
        "lat": 54.0688911, 
        "long": 12.0809776, 
        "name": "Institut für Umweltingenieurwesen"
    }, 
    {
        "lat": 54.7655803, 
        "long": -1.57718, 
        "name": "Teikyo University of Japan"
    }, 
    {
        "lat": 23.7516577, 
        "long": 90.3675787, 
        "name": "State University of Bangladesh"
    }, 
    {
        "lat": 23.7472792, 
        "long": 90.3703282, 
        "name": "Stamford University"
    }, 
    {
        "lat": 23.7456417, 
        "long": 90.3714439, 
        "name": "Stamford University"
    }, 
    {
        "lat": 23.7468733, 
        "long": 90.3755181, 
        "name": "Darul Ihsan University"
    }, 
    {
        "lat": 47.3829876, 
        "long": 8.5367336, 
        "name": "Zürcher Hochschule der Künste"
    }, 
    {
        "lat": 19.597498, 
        "long": -99.2264174, 
        "name": "Instituto De Estudios Superiores de Monterrey Campus Estado de Mexico"
    }, 
    {
        "lat": 50.8048061, 
        "long": 8.7702482, 
        "name": "Fachbereich Psychologie"
    }, 
    {
        "lat": 40.4483863, 
        "long": -3.7186228, 
        "name": "Rectorado de la Universidad Politécnica de Madrid"
    }, 
    {
        "lat": 39.9942815, 
        "long": 116.2957466, 
        "name": "北京大学蔚秀园"
    }, 
    {
        "lat": 33.9521496, 
        "long": 35.6179452, 
        "name": "جامعة سيدة اللويزة"
    }, 
    {
        "lat": 42.4138647, 
        "long": 12.1128475, 
        "name": "Università degli Studi della Tuscia"
    }, 
    {
        "lat": 42.4272928, 
        "long": 12.0927953, 
        "name": "Università degli Studi della Tuscia"
    }, 
    {
        "lat": 59.3299007, 
        "long": 18.0139595, 
        "name": "Lärarhögskolan"
    }, 
    {
        "lat": 38.9438815, 
        "long": -77.0660115, 
        "name": "University of the District of Columbia International Center"
    }, 
    {
        "lat": 28.5613968, 
        "long": 77.280906, 
        "name": "Jamia Millia Islamia"
    }, 
    {
        "lat": 45.2673862, 
        "long": 27.9728023, 
        "name": "Facultatea de Inginerie"
    }, 
    {
        "lat": 42.3757232, 
        "long": -71.1224711, 
        "name": "Radcliffe Institute for Advanced Studies"
    }, 
    {
        "lat": 42.3657277, 
        "long": -71.1194583, 
        "name": "Soldiers Field Park Apartments"
    }, 
    {
        "lat": 27.762667, 
        "long": -82.635813, 
        "name": "Bayboro Hall"
    }, 
    {
        "lat": 27.762363, 
        "long": -82.63445, 
        "name": "Coquina Hall"
    }, 
    {
        "lat": 27.762716, 
        "long": -82.635075, 
        "name": "Davis Hall"
    }, 
    {
        "lat": 27.764726, 
        "long": -82.634844, 
        "name": "Student Life Center at USFSP"
    }, 
    {
        "lat": 40.7286994, 
        "long": -73.9957151, 
        "name": "NYU Courant Institute of Mathematical Sciences"
    }, 
    {
        "lat": 38.7924208, 
        "long": -89.9858015, 
        "name": "National Corn-to-Ethanol Research Center"
    }, 
    {
        "lat": 34.0544582, 
        "long": -117.2639306, 
        "name": "Loma Linda University Centennial Complex"
    }, 
    {
        "lat": -33.0088098, 
        "long": -71.5473877, 
        "name": "Universidad de las Americas"
    }, 
    {
        "lat": 32.7101147, 
        "long": -97.3597777, 
        "name": "Brite Divinity School"
    }, 
    {
        "lat": 35.889119, 
        "long": 128.604786, 
        "name": "경북대학교 (Gyeongbuk University)"
    }, 
    {
        "lat": 35.138424, 
        "long": 129.097962, 
        "name": "경성대학교"
    }, 
    {
        "lat": 37.27551, 
        "long": 127.132173, 
        "name": "강남대학교 (Gangnam University)"
    }, 
    {
        "lat": 37.6283968, 
        "long": 127.0899843, 
        "name": "서울여자대학교 (Seoul Women;s University)"
    }, 
    {
        "lat": 37.451255, 
        "long": 127.129449, 
        "name": "가천대학교 글로벌캠퍼스 (Gachon University Global Campus)"
    }, 
    {
        "lat": 35.1652609, 
        "long": 126.9271693, 
        "name": "광주교육대학교 (Gwangju Teachers College)"
    }, 
    {
        "lat": 35.075269, 
        "long": 129.088703, 
        "name": "한국해양대학교 (Korea Haeyang University)"
    }, 
    {
        "lat": 36.9091602, 
        "long": 127.1436929, 
        "name": "남서울대학교"
    }, 
    {
        "lat": 36.652335, 
        "long": 127.493983, 
        "name": "청주대학교 (Cheongju University)"
    }, 
    {
        "lat": 35.139948, 
        "long": 126.911147, 
        "name": "호남신학대학교 (Honamsinhak University)"
    }, 
    {
        "lat": 35.1336153, 
        "long": 129.1042786, 
        "name": "부경대학교 대연캠퍼스"
    }, 
    {
        "lat": 35.945459, 
        "long": 126.682338, 
        "name": "국립군산대학교 (National Gunsan University)"
    }, 
    {
        "lat": 37.567469, 
        "long": 126.96217, 
        "name": "감리교신학대학교 (Gamnigyosinhak University)"
    }, 
    {
        "lat": 37.3208388, 
        "long": 127.1279084, 
        "name": "단국대학교 죽전캠퍼스 (Danguk University Jukjeon Campus)"
    }, 
    {
        "lat": 38.251531, 
        "long": 128.556618, 
        "name": "경동대학교 (Gyeongdong University)"
    }, 
    {
        "lat": 36.444843, 
        "long": 127.119211, 
        "name": "공주교육대학교 (Gongju Teachers College)"
    }, 
    {
        "lat": 37.490282, 
        "long": 127.016436, 
        "name": "서울교육대학교 (Seoul National University of Education)"
    }, 
    {
        "lat": 37.858785, 
        "long": 127.748054, 
        "name": "춘천교육대학교 (Chuncheon Teachers College)"
    }, 
    {
        "lat": 37.5862533, 
        "long": 126.9949355, 
        "name": "성균관대학교 인문과학캠퍼스 (Seonggyungwan University Inmungwahak Campus)"
    }, 
    {
        "lat": 37.6316807, 
        "long": 127.0782983, 
        "name": "서울과학기술대학교 (Seoul National University of Science and Technology)"
    }, 
    {
        "lat": 35.9711903, 
        "long": 126.9563287, 
        "name": "원광디지털대학교 (Wongwang Digital University)"
    }, 
    {
        "lat": 36.470467, 
        "long": 127.141453, 
        "name": "공주대학교 (Gongju University)"
    }, 
    {
        "lat": 36.580593, 
        "long": 126.663681, 
        "name": "청운대학교 (Cheongun University)"
    }, 
    {
        "lat": 35.185647, 
        "long": 128.067464, 
        "name": "진주교육대학교 (Jinju Teachers College)"
    }, 
    {
        "lat": 36.771283, 
        "long": 127.164711, 
        "name": "선문대학교 천안캠퍼스 (Seonmun University Cheonan Campus)"
    }, 
    {
        "lat": 35.180637, 
        "long": 128.555228, 
        "name": "경남대학교 (Gyeongnam University)"
    }, 
    {
        "lat": 37.5568408, 
        "long": 127.0463716, 
        "name": "한양대학교 서울캠퍼스 (Hanyang University Seoul Campus)"
    }, 
    {
        "lat": 35.830593, 
        "long": 129.162574, 
        "name": "경주대학교 (Gyeongju University)"
    }, 
    {
        "lat": 35.144294, 
        "long": 129.008736, 
        "name": "동서대학교 (Dongseo University)"
    }, 
    {
        "lat": 37.601644, 
        "long": 126.955455, 
        "name": "상명대학교 서울캠퍼스 (Sangmyeong University Seoul Campus)"
    }, 
    {
        "lat": 34.968688, 
        "long": 127.478818, 
        "name": "순천대학교 (Suncheon University)"
    }, 
    {
        "lat": 37.011174, 
        "long": 127.263835, 
        "name": "한경대학교 (Hangyeong University)"
    }, 
    {
        "lat": 37.59707, 
        "long": 127.058897, 
        "name": "한국외국어대학교 서울캠퍼스 (Korea Oegukeo University Seoul Campus)"
    }, 
    {
        "lat": 35.809013, 
        "long": 127.155002, 
        "name": "전주교육대학교 (Jeonju Teachers College)"
    }, 
    {
        "lat": 35.963677, 
        "long": 126.865319, 
        "name": "호원대학교 (Howon University)"
    }, 
    {
        "lat": 37.461066, 
        "long": 127.165285, 
        "name": "을지대학교 성남캠퍼스 (Eulji University Seongnam Campus)"
    }, 
    {
        "lat": 36.162561, 
        "long": 128.467158, 
        "name": "경운대학교 (Gyeongun University)"
    }, 
    {
        "lat": 36.1821736, 
        "long": 127.1117341, 
        "name": "건양대학교 본부캠퍼스 (Geonyang University Bonbu Campus)"
    }, 
    {
        "lat": 35.1162963, 
        "long": 129.090547, 
        "name": "부경대학교 용당캠퍼스"
    }, 
    {
        "lat": 35.8543229, 
        "long": 128.5811696, 
        "name": "계명대학교 대명캠퍼스 (Keimyung University Daemyeong Campus)"
    }, 
    {
        "lat": 36.525306, 
        "long": 128.8202153, 
        "name": "건동대학교 (Geondong University)"
    }, 
    {
        "lat": 37.543038, 
        "long": 126.947751, 
        "name": "서울디지털대학교 (Seoul Digital University)"
    }, 
    {
        "lat": 37.580023, 
        "long": 126.922978, 
        "name": "명지대학교 인문캠퍼스 (Myeongji University Inmun Campus)"
    }, 
    {
        "lat": 35.1528625, 
        "long": 126.8603676, 
        "name": "호남대학교 쌍촌캠퍼스 (Honam University Ssangchon Campus)"
    }, 
    {
        "lat": 37.243792, 
        "long": 127.078824, 
        "name": "경희대학교 국제캠퍼스 (Gyeonghui University International Campus)"
    },